SALE TYPE,SOLD DATE,PROPERTY TYPE,ADDRESS,CITY,STATE OR PROVINCE,ZIP OR POSTAL CODE,PRICE,BEDS,BATHS,LOCATION,SQUARE FEET,LOT SIZE,YEAR BUILT,DAYS ON MARKET,$/SQUARE FEET,HOA/MONTH,STATUS,NEXT OPEN HOUSE START TIME,NEXT OPEN HOUSE END TIME,URL (SEE https://www.redfin.com/buy-a-home/comparative-market-analysis FOR INFO ON PRICING),SOURCE,MLS#,FAVORITE,INTERESTED,LATITUDE,LONGITUDE
MLS Listing,,Condo/Co-op,1616 W Montrose Ave Unit 2G,Chicago,IL,60613,370000,2,2.0,CHI - Uptown,,,2000,1,,362,Active,October-8-2022 11:00 AM,October-8-2022 01:00 PM,https://www.redfin.com/IL/Chicago/1616-W-Montrose-Ave-60613/unit-2G/home/12700268,MRED,11646057,N,Y,41.9617248,-87.6698944
MLS Listing,,Condo/Co-op,1138 W Pratt Blvd Unit 2S,Chicago,IL,60626,274900,2,2.0,CHI - Rogers Park,1000,,1914,1,275,356,Active,October-8-2022 11:00 AM,October-8-2022 01:00 PM,https://www.redfin.com/IL/Chicago/1138-W-Pratt-Blvd-60626/unit-2S/home/26803218,MRED,11645858,N,Y,42.006091,-87.660203
MLS Listing,,Condo/Co-op,655 W Irving Park Rd #5313,Chicago,IL,60613,212000,1,1.0,Park Place Tower,762,,1973,1,278,813,Active,,,https://www.redfin.com/IL/Chicago/655-W-Irving-Park-Rd-60613/unit-5313/home/12688974,MRED,11645806,N,Y,41.9544485,-87.6469986
MLS Listing,,Condo/Co-op,2612 N Whipple St #3,Chicago,IL,60647,325000,2,2.0,CHI - Logan Square,,,1904,1,,332,Active,October-8-2022 11:00 AM,October-8-2022 01:00 PM,https://www.redfin.com/IL/Chicago/2612-N-Whipple-St-60647/unit-3/home/26806376,MRED,11642461,N,Y,41.9290757,-87.7038007
MLS Listing,,Condo/Co-op,3836 W Lexington St #1,Chicago,IL,60624,100000,4,1.0,CHI - West Garfield Park,1200,,1904,1,83,,Active,,,https://www.redfin.com/IL/Chicago/3836-W-Lexington-St-60624/unit-1/home/13256848,MRED,11645555,N,Y,41.8719439,-87.7218811
MLS Listing,,Condo/Co-op,1622 N Mozart St Unit 1N,Chicago,IL,60647,465000,3,3.0,CHI - West Town,2200,,2003,1,211,232,Active,October-8-2022 11:00 AM,October-8-2022 01:00 PM,https://www.redfin.com/IL/Chicago/1622-N-Mozart-St-60647/unit-1N/home/12602442,MRED,11640177,N,Y,41.9109693,-87.6983077
MLS Listing,,Condo/Co-op,1542 E 67th Pl Unit 1E,Chicago,IL,60637,230000,3,2.0,CHI - South Shore,1700,,1911,1,135,200,Active,,,https://www.redfin.com/IL/Chicago/1542-E-67th-Pl-60637/unit-1E/home/21792834,MRED,11645239,N,Y,41.7726389,-87.5870334
MLS Listing,,Multi-Family (2-4 Unit),5929 S Paulina St,Chicago,IL,60636,179000,6,2.0,CHI - West Englewood,,3049,1910,1,,,Active,,,https://www.redfin.com/IL/Chicago/5929-S-Paulina-St-60636/home/13937774,MRED,11644818,N,Y,41.7858544,-87.6664932
MLS Listing,,Single Family Residential,1700 W 91st Pl,Chicago,IL,60620,260000,3,3.0,CHI - Washington Heights,2200,6250,1924,1,118,,Active,October-8-2022 11:00 AM,October-8-2022 01:00 PM,https://www.redfin.com/IL/Chicago/1700-W-91st-Pl-60620/home/13099144,MRED,11644773,N,Y,41.7277033,-87.6654915
MLS Listing,,Multi-Family (2-4 Unit),6625 N California Ave,Chicago,IL,60645,525000,6,4.0,CHI - West Ridge,,,1958,1,,,Active,,,https://www.redfin.com/IL/Chicago/6625-N-California-Ave-60645/home/13582438,MRED,11640667,N,Y,42.0019766,-87.6994412
MLS Listing,,Condo/Co-op,1601 S State St Unit 3E,Chicago,IL,60616,384900,3,2.0,CHI - Near South Side,1650,,2004,1,233,670,Active,,,https://www.redfin.com/IL/Chicago/1601-S-State-St-60616/unit-3E/home/179110292,MRED,11644652,N,Y,41.8599299,-87.6268884
MLS Listing,,Condo/Co-op,100 E 14th St #1807,Chicago,IL,60605,399000,2,2.0,CHI - Near South Side,1248,,2008,2,320,610,Active,October-8-2022 12:00 PM,October-8-2022 02:00 PM,https://www.redfin.com/IL/Chicago/100-E-14th-St-60605/unit-1807/home/39570460,MRED,11644076,N,Y,41.8645195,-87.6238055
MLS Listing,,Condo/Co-op,2214 N Campbell Ave Unit 1B,Chicago,IL,60647,379999,3,3.0,CHI - Logan Square,1600,,1894,2,237,286,Active,,,https://www.redfin.com/IL/Chicago/2214-N-Campbell-Ave-60647/unit-1B/home/18936313,MRED,11643850,N,Y,41.9221112,-87.6896587
MLS Listing,,Single Family Residential,8500 S Keeler Ave,Chicago,IL,60652,320000,3,1.5,CHI - Ashburn,1222,5148,1968,2,262,,Active,,,https://www.redfin.com/IL/Chicago/8500-S-Keeler-Ave-60652/home/13967353,MRED,11643825,N,Y,41.7382956,-87.7267083
MLS Listing,,Condo/Co-op,1440 S Michigan Ave #514,Chicago,IL,60605,345000,2,2.0,CHI - Near South Side,1100,,2000,2,314,478,Active,October-8-2022 11:00 AM,October-8-2022 01:00 PM,https://www.redfin.com/IL/Chicago/1440-S-Michigan-Ave-60605/unit-514/home/12733007,MRED,11643799,N,Y,41.863073831,-87.62441374
MLS Listing,,Multi-Family (2-4 Unit),1936 W Belle Plaine Ave,Chicago,IL,60613,979900,6,3.0,CHI - North Center,,,1898,5,,,Active,October-8-2022 12:00 PM,October-8-2022 02:00 PM,https://www.redfin.com/IL/Chicago/1936-W-Belle-Plaine-Ave-60613/home/13389613,MRED,11640604,N,Y,41.9561936,-87.677857
MLS Listing,,Single Family Residential,419 E 42nd St,Chicago,IL,60653,455000,8,3.5,CHI - Grand Boulevard,3900,4922,1893,5,117,,Active,October-8-2022 02:00 PM,October-8-2022 04:00 PM,https://www.redfin.com/IL/Chicago/419-E-42nd-St-60653/home/13960954,MRED,11638571,N,Y,41.8182449,-87.6158032
MLS Listing,,Condo/Co-op,1841 S Calumet Ave #1511,Chicago,IL,60616,345000,2,2.0,CHI - Near South Side,1080,,2004,5,319,644,Active,,,https://www.redfin.com/IL/Chicago/1841-S-Calumet-Ave-60616/unit-1511/home/18937852,MRED,11634799,N,Y,41.8573213,-87.6189079
MLS Listing,,Condo/Co-op,1110 N Lake Shore Dr Unit 4N,Chicago,IL,60611,485000,3,2.5,CHI - Near North Side,2122,,1969,5,229,2540,Active,,,https://www.redfin.com/IL/Chicago/1110-N-Lake-Shore-Dr-60611/unit-4N/home/14122746,MRED,11641991,N,Y,41.902836,-87.625043
MLS Listing,,Townhouse,3657 S Normal Ave Unit E,Chicago,IL,60609,470000,3,2.5,CHI - Bridgeport,1640,,1997,5,287,,Active,,,https://www.redfin.com/IL/Chicago/3657-S-Normal-Ave-60609/unit-E/home/14072408,MRED,11641978,N,Y,41.8273796,-87.6385494
MLS Listing,,Single Family Residential,6437 S Troy St,Chicago,IL,60629,280000,5,2.5,CHI - Chicago Lawn,1150,3136,1919,5,243,,Active,,,https://www.redfin.com/IL/Chicago/6437-S-Troy-St-60629/home/13988041,MRED,11641977,N,Y,41.7760724,-87.701577
MLS Listing,,Condo/Co-op,1143 S Plymouth Ct #604,Chicago,IL,60605,289900,2,2.0,Dearborn Park,1250,,1979,6,232,553,Active,,,https://www.redfin.com/IL/Chicago/1143-S-Plymouth-Ct-60605/unit-604/home/14091229,MRED,11639645,N,Y,41.8688062,-87.6282799
MLS Listing,,Condo/Co-op,1914 N Sheffield Ave Unit 2F,Chicago,IL,60614,415000,2,1.0,CHI - Lincoln Park,,,1889,6,,232,Active,,,https://www.redfin.com/IL/Chicago/1914-N-Sheffield-Ave-60614/unit-2F/home/13352007,MRED,11641451,N,Y,41.916541,-87.653664
MLS Listing,,Condo/Co-op,6250 N Francisco Ave Unit GBE,Chicago,IL,60659,139000,2,1.0,CHI - West Ridge,,,1950,6,,262,Active,,,https://www.redfin.com/IL/Chicago/6250-N-Francisco-Ave-60659/unit-GBE/home/181753220,MRED,11628403,N,Y,41.9956195,-87.7023048
MLS Listing,,Condo/Co-op,2753 N Hampden Ct Unit 2B,Chicago,IL,60614,1895000,4,4.5,CHI - Lincoln Park,2902,,2019,6,653,650,Active,October-8-2022 12:00 PM,October-8-2022 02:00 PM,https://www.redfin.com/IL/Chicago/2753-N-Hampden-Ct-60614/unit-2B/home/144232690,MRED,11641379,N,Y,41.9322901,-87.6420418
MLS Listing,,Condo/Co-op,3651 N Kedvale Ave Unit 2A,Chicago,IL,60641,145000,1,1.0,CHI - Irving Park,,,1929,6,,260,Active,,,https://www.redfin.com/IL/Chicago/3651-N-Kedvale-Ave-60641/unit-2A/home/12638899,MRED,11641192,N,Y,41.9478682,-87.7301918
MLS Listing,,Condo/Co-op,2004 W Erie St Unit 1W,Chicago,IL,60612,765000,4,3.0,CHI - West Town,,,2013,6,,300,Active,,,https://www.redfin.com/IL/Chicago/2004-W-Erie-St-60612/unit-1W/home/113044196,MRED,11610855,N,Y,41.8932873,-87.6772969
MLS Listing,,Condo/Co-op,2700 N Hampden Ct Unit 18C,Chicago,IL,60614,305000,2,2.0,CHI - Lincoln Park,1200,,1968,6,254,916,Active,,,https://www.redfin.com/IL/Chicago/2700-N-Hampden-Ct-60614/unit-18C/home/13368686,MRED,11641053,N,Y,41.9308327,-87.6419459
MLS Listing,,Condo/Co-op,1505 N Fairfield Ave Unit 3N,Chicago,IL,60622,534900,2,2.0,CHI - West Town,,,2017,6,,155,Active,,,https://www.redfin.com/IL/Chicago/1505-N-Fairfield-Ave-60622/unit-3N/home/112688535,MRED,11641050,N,Y,41.908571,-87.695354
MLS Listing,,Condo/Co-op,2529 N Halsted St Unit 2S,Chicago,IL,60614,565000,2,2.0,Lillview Condominiums,1800,,1997,7,314,270,Active,,,https://www.redfin.com/IL/Chicago/2529-N-Halsted-St-60614/unit-2S/home/12804448,MRED,11640346,N,Y,41.9281067,-87.6485351
MLS Listing,,Condo/Co-op,1464 S Michigan Ave #505,Chicago,IL,60605,295000,2,1.0,Marquee,900,,2008,7,328,537,Active,,,https://www.redfin.com/IL/Chicago/1464-S-Michigan-Ave-60605/unit-505/home/39570938,MRED,11640320,N,Y,41.8622613,-87.624234
MLS Listing,,Condo/Co-op,3151 N Lincoln Ave #208,Chicago,IL,60657,279500,1,1.0,CHI - Lake View,720,,1934,7,388,393,Active,,,https://www.redfin.com/IL/Chicago/3151-N-Lincoln-Ave-60657/unit-208/home/13365646,MRED,11636687,N,Y,41.939122,-87.6677022
MLS Listing,,Townhouse,2344 W George St,Chicago,IL,60618,400000,2,1.5,Riverwalk,1630,,2000,8,245,383,Active,October-8-2022 12:00 PM,October-8-2022 02:00 PM,https://www.redfin.com/IL/Chicago/2344-W-George-St-60618/home/12698311,MRED,11634977,N,Y,41.933943284,-87.68724584
MLS Listing,,Single Family Residential,3626 S Giles Ave,Chicago,IL,60653,530000,4,3.5,CHI - Douglas,1878,3362,2002,8,282,,Active,,,https://www.redfin.com/IL/Chicago/3626-S-Giles-Ave-60653/home/12733527,MRED,11639092,N,Y,41.8284225,-87.6195539
MLS Listing,,Condo/Co-op,125 E 13th St #604,Chicago,IL,60605,440000,2,2.0,Museum Park Lofts,1300,,2002,8,338,506,Active,,,https://www.redfin.com/IL/Chicago/125-E-13th-St-60605/unit-604/home/12645866,MRED,11639050,N,Y,41.8655862,-87.62288
MLS Listing,,Multi-Family (2-4 Unit),6549 S Saint Lawrence Ave,Chicago,IL,60637,449000,7,3.0,CHI - Woodlawn,,2613,1895,9,,,Active,,,https://www.redfin.com/IL/Chicago/6549-S-Saint-Lawrence-Ave-60637/home/181310601,MRED,11638447,N,Y,41.775257,-87.6103936
MLS Listing,,Condo/Co-op,3600 N Lake Shore Dr #2625,Chicago,IL,60613,274900,1,1.0,CHI - Lake View,,,1960,9,,764,Active,,,https://www.redfin.com/IL/Chicago/3600-N-Lake-Shore-Dr-60613/unit-2625/home/13376979,MRED,11636779,N,Y,41.9489369,-87.6441842
MLS Listing,,Condo/Co-op,643 W Barry Ave Unit 1D,Chicago,IL,60657,235000,1,1.0,CHI - Lake View,700,,1970,9,336,197,Active,,,https://www.redfin.com/IL/Chicago/643-W-Barry-Ave-60657/unit-1D/home/12683066,MRED,11638265,N,Y,41.9375782,-87.6459541
MLS Listing,,Single Family Residential,2610 N Kimball Ave,Chicago,IL,60647,1050000,5,3.5,CHI - Logan Square,2984,3920,2007,12,352,,Active,,,https://www.redfin.com/IL/CHICAGO/2610-N-KIMBALL-AVE-60647/home/18946402,MRED,11637137,N,Y,41.928782,-87.712619
MLS Listing,,Condo/Co-op,4852 N Paulina St Unit 1E,Chicago,IL,60640,165000,1,1.0,CHI - Uptown,784,,1969,12,210,257,Active,,,https://www.redfin.com/IL/Chicago/4852-N-Paulina-St-60640/unit-1E/home/13402797,MRED,11633779,N,Y,41.9704285,-87.6715481
MLS Listing,,Single Family Residential,2015 Newton Ave,Park Ridge,IL,60068,395000,3,2.0,Park Ridge,960,5850,1944,12,411,,Active,,,https://www.redfin.com/IL/Park-Ridge/2015-Newton-Ave-60068/home/13565798,MRED,11636567,N,Y,41.9856771,-87.8240227
MLS Listing,,Condo/Co-op,625 W Jackson Blvd #707,Chicago,IL,60661,390000,2,1.0,Capitol Hill Lofts,1050,,1918,13,371,555,Active,,,https://www.redfin.com/IL/Chicago/625-W-Jackson-Blvd-60661/unit-707/home/12713702,MRED,11632980,N,Y,41.8778774,-87.6435687
MLS Listing,,Condo/Co-op,600 N Fairbanks Ct #2006,Chicago,IL,60611,379900,1,1.0,CHI - Near North Side,821,,2008,13,463,483,Active,,,https://www.redfin.com/IL/Chicago/600-N-Fairbanks-Ct-60611/unit-2006/home/39557848,MRED,11633983,N,Y,41.8927936,-87.6206433
MLS Listing,,Condo/Co-op,100 E Huron St #1703,Chicago,IL,60611,550000,2,2.0,CHI - Near North Side,1481,,1989,13,371,1193,Active,,,https://www.redfin.com/IL/Chicago/100-E-Huron-St-60611/unit-1703/home/14099785,MRED,11635603,N,Y,41.895034,-87.6250256
MLS Listing,,Townhouse,26 S Aberdeen St #8,Chicago,IL,60607,775000,3,2.0,CHI - Near West Side,2000,,2007,13,388,275,Active,October-8-2022 11:00 AM,October-8-2022 01:00 PM,https://www.redfin.com/IL/Chicago/26-S-Aberdeen-St-60607/unit-8/home/12632522,MRED,11632635,N,Y,41.8808922,-87.6549666
MLS Listing,,Condo/Co-op,4867 N Rockwell St Unit G,Chicago,IL,60625,269900,2,2.0,CHI - Lincoln Square,,,1924,14,,169,Active,,,https://www.redfin.com/IL/Chicago/4867-N-Rockwell-St-60625/unit-G/home/39944206,MRED,11631733,N,Y,41.9706095,-87.6936159
MLS Listing,,Condo/Co-op,1455 N Sandburg Ter Unit 1009B,Chicago,IL,60610,349900,2,1.0,CHI - Near North Side,,,1964,14,,671,Active,,,https://www.redfin.com/IL/Chicago/1455-N-Sandburg-Ter-60610/unit-1009B/home/14116073,MRED,11635048,N,Y,41.9088719,-87.6320457
MLS Listing,,Condo/Co-op,2341 W Roscoe St Unit 1W,Chicago,IL,60618,899000,4,2.5,CHI - North Center,,,2018,14,,307,Active,,,https://www.redfin.com/IL/Chicago/2341-W-Roscoe-St-60618/unit-1W/home/175638037,MRED,11634849,N,Y,41.94290002,-87.68744241
MLS Listing,,Condo/Co-op,932 W George St #3,Chicago,IL,60657,475000,2,2.0,CHI - Lake View,,,1996,14,,195,Active,,,https://www.redfin.com/IL/Chicago/932-W-George-St-60657/unit-3/home/13362961,MRED,11634816,N,Y,41.934697,-87.6528898
MLS Listing,,Townhouse,648 W Oak St,Chicago,IL,60610,779900,3,2.5,CHI - Near North Side,,,2007,14,,254,Active,,,https://www.redfin.com/IL/Chicago/648-W-Oak-St-60610/home/12621241,MRED,11628992,N,Y,41.8999386,-87.6447673
MLS Listing,,Condo/Co-op,660 W Wayman St Unit 507B,Chicago,IL,60661,319000,1,2.0,Trio,800,,2008,14,399,519,Active,,,https://www.redfin.com/IL/Chicago/660-W-Wayman-St-60661/unit-507B/home/21801927,MRED,11634629,N,Y,41.887518,-87.645063
MLS Listing,,Condo/Co-op,1000 W Leland Ave Unit 6F,Chicago,IL,60640,249900,2,1.0,CHI - Uptown,,,2004,15,,376,Active,,,https://www.redfin.com/IL/Chicago/1000-W-Leland-Ave-60640/unit-6F/home/12571464,MRED,11634053,N,Y,41.9673599,-87.6549621
MLS Listing,,Single Family Residential,4852 N Mont Clare Ave,Chicago,IL,60656,359900,4,2.5,CHI - Norwood Park,1250,,1958,15,288,,Active,,,https://www.redfin.com/IL/Chicago/4852-N-Mont-Clare-Ave-60656/home/13504887,MRED,11629963,N,Y,41.969838,-87.8051296
MLS Listing,,Single Family Residential,19 E 102nd Pl,Chicago,IL,60628,150000,3,2.0,CHI - Roseland,1633,4687,1905,15,92,,Active,,,https://www.redfin.com/IL/Chicago/19-E-102nd-Pl-60628/home/13088235,MRED,11634032,N,Y,41.7078927,-87.6227451
MLS Listing,,Condo/Co-op,1069 W Foster Ave Unit 2D,Chicago,IL,60640,274900,2,2.0,CHI - Uptown,1099,,1917,15,250,235,Active,October-8-2022 02:00 PM,October-8-2022 04:00 PM,https://www.redfin.com/IL/Chicago/1069-W-Foster-Ave-60640/unit-2D/home/181855921,MRED,11633695,N,Y,41.9762601,-87.6574334
MLS Listing,,Condo/Co-op,1307 S Wabash Ave #408,Chicago,IL,60605,225000,1,1.0,CHI - Near South Side,,,1929,16,,418,Active,,,https://www.redfin.com/IL/Chicago/1307-S-Wabash-Ave-60605/unit-408/home/12725359,MRED,11633228,N,Y,41.8654407,-87.6253097
MLS Listing,,Single Family Residential,557 E 92nd Pl,Chicago,IL,60619,250000,4,2.0,CHI - Chatham,2254,3123,1910,16,111,,Active,,,https://www.redfin.com/IL/Chicago/557-E-92nd-Pl-60619/home/13109058,MRED,11632923,N,Y,41.7262784,-87.6095757
MLS Listing,,Condo/Co-op,1720 S Michigan Ave #1204,Chicago,IL,60616,225900,1,1.0,CHI - Near South Side,700,,2005,16,323,354,Active,,,https://www.redfin.com/IL/Chicago/1720-S-Michigan-Ave-60616/unit-1204/home/39558369,MRED,11632639,N,Y,41.8586026,-87.6246153
MLS Listing,,Townhouse,1618 N Larrabee St,Chicago,IL,60614,885000,4,2.5,CHI - Lincoln Park,,,1987,19,,,Active,,,https://www.redfin.com/IL/Chicago/1618-N-Larrabee-St-60614/home/13346471,MRED,11626092,N,Y,41.9118205,-87.6436813
MLS Listing,,Condo/Co-op,1935 S Archer Ave #518,Chicago,IL,60616,240000,1,1.0,CHI - Near South Side,900,,2006,19,267,443,Active,,,https://www.redfin.com/IL/Chicago/1935-S-Archer-Ave-60616/unit-518/home/18931231,MRED,11617212,N,Y,41.8558278,-87.6283056
MLS Listing,,Condo/Co-op,100 E 14th St #2301,Chicago,IL,60605,710000,3,2.0,CHI - Near South Side,1695,,2006,19,419,1060,Active,,,https://www.redfin.com/IL/Chicago/100-E-14th-St-60605/unit-2301/home/39570245,MRED,11631110,N,Y,41.8645195,-87.6238055
MLS Listing,,Condo/Co-op,839 W Ainslie St Unit 3W,Chicago,IL,60640,370000,2,2.0,CHI - Uptown,1700,,1911,19,218,272,Active,,,https://www.redfin.com/IL/Chicago/839-W-Ainslie-St-60640/unit-3W/home/180592376,MRED,11627450,N,Y,41.971386,-87.65176
MLS Listing,,Single Family Residential,3427 W 61st St,Chicago,IL,60629,374900,5,2.0,CHI - Chicago Lawn,,6015,1880,19,,,Active,,,https://www.redfin.com/IL/Chicago/3427-W-61st-St-60629/home/14007551,MRED,11631397,N,Y,41.7823033,-87.7092179
MLS Listing,,Condo/Co-op,40 E 9th St #718,Chicago,IL,60605,210000,1,1.0,CHI - Loop,910,,1998,19,231,642,Active,October-8-2022 11:00 AM,October-8-2022 01:00 PM,https://www.redfin.com/IL/Chicago/40-E-9th-St-60605/unit-718/home/12633439,MRED,11628221,N,Y,41.8707384,-87.6263891
MLS Listing,,Multi-Family (2-4 Unit),7847 S Saint Lawrence Ave,Chicago,IL,60619,250000,4,2.0,CHI - Greater Grand Crossing,,,1915,19,,,Active,,,https://www.redfin.com/IL/Chicago/7847-S-St-Lawrence-Ave-60619/home/13917649,MRED,11631184,N,Y,41.7516483,-87.6098109
MLS Listing,,Condo/Co-op,3660 N Lake Shore Dr #410,Chicago,IL,60613,199900,1,1.0,CHI - Lake View,,,1987,19,,379,Active,,,https://www.redfin.com/IL/Chicago/3660-N-Lake-Shore-Dr-60613/unit-410/home/12741996,MRED,11625722,N,Y,41.949859,-87.6457899
MLS Listing,,Condo/Co-op,4216 S Ellis Ave Unit 3S,Chicago,IL,60653,579999,4,4.0,CHI - Oakland,3500,,2016,19,166,320,Active,,,https://www.redfin.com/IL/Chicago/4216-S-Ellis-Ave-60653/unit-3S/home/144510582,MRED,11631038,N,Y,41.8174267,-87.6022424
MLS Listing,,Condo/Co-op,400 E Randolph St #3628,Chicago,IL,60601,345000,1,1.0,CHI - Loop,860,,1963,20,401,680,Active,,,https://www.redfin.com/IL/Chicago/400-E-Randolph-St-60601/unit-3628/home/14094290,MRED,11630701,N,Y,41.885003,-87.6168638
MLS Listing,,Single Family Residential,4015 N Drake Ave,Chicago,IL,60618,795000,4,3.5,CHI - Irving Park,3576,3036,2013,20,222,,Active,,,https://www.redfin.com/IL/Chicago/4015-N-Drake-Ave-60618/home/13482788,MRED,11630015,N,Y,41.9543587,-87.7163092
MLS Listing,,Condo/Co-op,5559 S Blackstone Ave #2,Chicago,IL,60637,369000,3,2.0,CHI - Hyde Park,1600,,1906,21,231,656,Active,,,https://www.redfin.com/IL/Chicago/5559-S-Blackstone-Ave-60637/unit-2/home/12565773,MRED,11629364,N,Y,41.7935128,-87.5898569
MLS Listing,,Condo/Co-op,4631 S Ellis Ave Unit 3R,Chicago,IL,60653,399900,3,2.5,Ellington Court,2103,,,21,190,202,Active,,,https://www.redfin.com/IL/Chicago/4631-S-Ellis-Ave-60653/unit-3R/home/12733143,MRED,11629270,N,Y,41.8104971,-87.6012893
MLS Listing,,Condo/Co-op,3543 W Belmont Ave #2,Chicago,IL,60618,450000,3,2.5,CHI - Avondale,1650,,2011,21,273,265,Active,,,https://www.redfin.com/IL/Chicago/3543-W-Belmont-Ave-60618/unit-2/home/52639035,MRED,11629241,N,Y,41.93897,-87.71661
MLS Listing,,Condo/Co-op,1345 W Huron St #3,Chicago,IL,60642,569000,2,2.0,CHI - West Town,,,2016,21,,176,Active,,,https://www.redfin.com/IL/Chicago/1345-W-Huron-St-60642/unit-3/home/161065785,MRED,11628984,N,Y,41.8941037,-87.6613045
MLS Listing,,Condo/Co-op,6444 S Woodlawn Ave Unit 4N,Chicago,IL,60637,375000,3,2.0,CHI - Woodlawn,2000,,2018,21,188,202,Active,,,https://www.redfin.com/IL/Chicago/6444-S-Woodlawn-Ave-60637/unit-4N/home/179303424,MRED,11624927,N,Y,41.7773644,-87.5963797
MLS Listing,,Single Family Residential,6124 S Mcvicker Ave,Chicago,IL,60638,424000,5,3.0,CHI - Clearing,2099,3746,2010,22,202,,Active,October-9-2022 10:00 AM,October-9-2022 12:00 PM,https://www.redfin.com/IL/Chicago/6124-S-McVicker-Ave-60638/home/12817862,MRED,11626120,N,Y,41.7807017,-87.7731624
MLS Listing,,Multi-Family (2-4 Unit),8109 S Drexel Ave,Chicago,IL,60619,375000,9,3.0,CHI - Chatham,,3920,1925,22,,,Active,,,https://www.redfin.com/IL/Chicago/8109-S-Drexel-Ave-60619/home/13224206,MRED,11614791,N,Y,41.7472806,-87.6023406
MLS Listing,,Single Family Residential,6438 N Harlem Ave,Chicago,IL,60631,289999,3,2.0,CHI - Edison Park,1000,4133,1959,22,290,,Active,,,https://www.redfin.com/IL/Chicago/6438-N-Harlem-Ave-60631/home/13635879,MRED,11627997,N,Y,41.9980854,-87.8070884
MLS Listing,,Condo/Co-op,5553 N Clark St #301,Chicago,IL,60640,579900,3,2.0,CHI - Edgewater,,,2019,23,,226,Active,,,https://www.redfin.com/IL/Chicago/5553-N-Clark-St-60640/unit-301/home/168661028,MRED,11627486,N,Y,41.983298,-87.668362
MLS Listing,,Multi-Family (2-4 Unit),1637 N Richmond St,Chicago,IL,60647,540000,6,3.0,CHI - West Town,,,1880,26,,,Active,,,https://www.redfin.com/IL/Chicago/1637-N-Richmond-St-60647/home/181656397,MRED,11477424,N,Y,41.9113231,-87.7000371
MLS Listing,,Condo/Co-op,1122 W Catalpa Ave #515,Chicago,IL,60640,249900,2,1.5,Catalpa Gardens,1054,,2007,27,237,636,Active,,,https://www.redfin.com/IL/Chicago/1122-W-Catalpa-Ave-60640/unit-515/home/16882786,MRED,11625022,N,Y,41.9824219,-87.6590772
MLS Listing,,Condo/Co-op,749 S Claremont Ave #2,Chicago,IL,60612,245000,2,2.0,CHI - Near West Side,1200,,1997,27,204,150,Active,,,https://www.redfin.com/IL/Chicago/749-S-Claremont-Ave-60612/unit-2/home/12763934,MRED,11624808,N,Y,41.8717244,-87.6846611
MLS Listing,,Condo/Co-op,2324 N Lincoln Park Unit 4C,Chicago,IL,60614,160000,0,1.0,CHI - Lincoln Park,,,1927,27,,229,Active,,,https://www.redfin.com/IL/Chicago/2324-N-Lincoln-Park-W-60614/unit-4C/home/18957567,MRED,11624799,N,Y,41.924602,-87.6372469
MLS Listing,,Condo/Co-op,565 W Quincy St #1009,Chicago,IL,60661,465000,2,2.0,CHI - Near West Side,,,2009,27,,730,Active,,,https://www.redfin.com/IL/Chicago/565-W-Quincy-St-60661/unit-1009/home/171322145,MRED,11622139,N,Y,41.8784947,-87.6422376
MLS Listing,,Single Family Residential,6737 N Hermitage Ave,Chicago,IL,60626,749900,4,4.0,CHI - Rogers Park,3038,,1929,27,247,,Active,,,https://www.redfin.com/IL/Chicago/6737-N-Hermitage-Ave-60626/home/13570273,MRED,11624698,N,Y,42.0045994,-87.6737077
MLS Listing,,Condo/Co-op,235 W Van Buren St #4001,Chicago,IL,60607,465500,2,2.0,CHI - Loop,1352,,2010,27,344,562,Active,,,https://www.redfin.com/IL/Chicago/235-W-Van-Buren-St-60607/unit-4001/home/113098051,MRED,11618511,N,Y,41.8765303,-87.6347529
MLS Listing,,Condo/Co-op,33 W Ontario St Unit 24F,Chicago,IL,60654,425000,2,2.0,CHI - Near North Side,1250,,2003,27,340,967,Active,,,https://www.redfin.com/IL/Chicago/33-W-Ontario-St-60654/unit-24F/home/39557679,MRED,11624493,N,Y,41.8931144,-87.6291864
MLS Listing,,Condo/Co-op,910 S Michigan Ave #1211,Chicago,IL,60605,414900,2,2.0,CHI - Loop,1650,,1913,27,251,934,Active,,,https://www.redfin.com/IL/Chicago/910-S-Michigan-Ave-60605/unit-1211/home/12662665,MRED,11624383,N,Y,41.8701636,-87.6248468
MLS Listing,,Condo/Co-op,1414 N Wells St #212,Chicago,IL,60610,399900,1,1.0,CHI - Near North Side,,,1995,27,,538,Active,,,https://www.redfin.com/IL/Chicago/1414-N-Wells-St-60610/unit-212/home/14115603,MRED,11610665,N,Y,41.9081697,-87.6349094
MLS Listing,,Condo/Co-op,200 W Grand Ave #1403,Chicago,IL,60654,399000,2,2.0,CHI - Near North Side,1250,,2004,27,319,804,Active,,,https://www.redfin.com/IL/Chicago/200-W-Grand-Ave-60654/unit-1403/home/12576394,MRED,11613546,N,Y,41.8918775,-87.6344475
MLS Listing,,Condo/Co-op,3001 W Logan Blvd #1,Chicago,IL,60647,324900,2,1.0,CHI - Logan Square,950,,1908,28,342,338,Active,,,https://www.redfin.com/IL/Chicago/3001-W-Logan-Blvd-60647/unit-1/home/12727616,MRED,11613550,N,Y,41.9279283,-87.7025983
MLS Listing,,Condo/Co-op,1641 W Farwell Ave Unit 2N,Chicago,IL,60626,216500,2,2.0,CHI - Rogers Park,1000,,1918,28,217,201,Active,,,https://www.redfin.com/IL/Chicago/1641-W-Farwell-Ave-60626/unit-2N/home/26802709,MRED,11623509,N,Y,42.0060966,-87.671571
MLS Listing,,Condo/Co-op,565 W Quincy St #717,Chicago,IL,60661,360000,2,2.0,CHI - Near West Side,1132,,2009,28,318,670,Active,,,https://www.redfin.com/IL/Chicago/565-W-Quincy-St-60661/unit-717/home/28471158,MRED,11623500,N,Y,41.8783451,-87.6420845
MLS Listing,,Single Family Residential,5332 S Lowe Ave,Chicago,IL,60609,190000,4,1.5,CHI - New City,996,3149,1969,29,191,,Active,,,https://www.redfin.com/IL/Chicago/5332-S-Lowe-Ave-60609/home/13952234,MRED,11622137,N,Y,41.7970172,-87.6418759
MLS Listing,,Condo/Co-op,212 W Washington St #2111,Chicago,IL,60606,270000,2,1.0,CHI - Loop,900,,1914,29,300,766,Active,October-8-2022 01:00 PM,October-8-2022 03:00 PM,https://www.redfin.com/IL/Chicago/212-W-Washington-St-60606/unit-2111/home/113098187,MRED,11610430,N,Y,41.8833756,-87.634418
MLS Listing,,Condo/Co-op,2910 W Berwyn Ave #3,Chicago,IL,60625,215000,2,1.0,CHI - Lincoln Square,1030,,1975,29,209,324,Active,,,https://www.redfin.com/IL/Chicago/2910-W-Berwyn-Ave-60625/unit-3/home/180562903,MRED,11622067,N,Y,41.977883,-87.7021199
MLS Listing,,Condo/Co-op,2 S Leavitt St #206,Chicago,IL,60612,249900,1,1.0,CHI - Near West Side,,,2005,29,,290,Active,,,https://www.redfin.com/IL/Chicago/2-S-Leavitt-St-60612/unit-206/home/26795614,MRED,11622000,N,Y,41.8810582,-87.6816613
MLS Listing,,Single Family Residential,7007 W Farragut Ave,Chicago,IL,60656,339999,2,1.0,CHI - Norwood Park,800,2500,1961,29,425,,Active,,,https://www.redfin.com/IL/Chicago/7007-W-Farragut-Ave-60656/home/13506915,MRED,11621882,N,Y,41.9761796,-87.8027867
MLS Listing,,Condo/Co-op,474 N Lake Shore Dr #2206,Chicago,IL,60611,244000,0,1.0,CHI - Near North Side,650,,1991,33,375,554,Active,,,https://www.redfin.com/IL/Chicago/474-N-Lake-Shore-Dr-60611/unit-2206/home/12592706,MRED,11620570,N,Y,41.8908367,-87.6145904
MLS Listing,,Condo/Co-op,125 E 13th St #1104,Chicago,IL,60605,430000,2,2.0,CHI - Near South Side,1400,,2005,33,307,528,Active,,,https://www.redfin.com/IL/Chicago/125-E-13th-St-60605/unit-1104/home/12635887,MRED,11620013,N,Y,41.8655862,-87.62288
MLS Listing,,Condo/Co-op,11907 Gregory St #3,Blue Island,IL,60406,55900,1,1.0,Blue Island,640,,1964,33,87,232,Active,,,https://www.redfin.com/IL/Blue-Island/11907-Gregory-St-60406/unit-3/home/12690612,MRED,11620014,N,Y,41.6769559,-87.679048
MLS Listing,,Single Family Residential,7332 S Dante Ave,Chicago,IL,60619,274990,3,2.5,CHI - South Shore,1500,3136,1922,33,183,,Active,,,https://www.redfin.com/IL/Chicago/7332-S-Dante-Ave-60619/home/13921685,MRED,11614492,N,Y,41.7613609,-87.5899547
MLS Listing,,Single Family Residential,8444 W Agatite Ave,Chicago,IL,60656,495000,3,2.0,CHI - O'Hare,2002,5671,1958,34,247,,Active,,,https://www.redfin.com/IL/Chicago/8444-W-Agatite-Ave-60656/home/13551375,MRED,11618495,N,Y,41.9608249,-87.8382256
MLS Listing,,Single Family Residential,5465 N Mason Ave,Chicago,IL,60630,469000,4,3.0,CHI - Jefferson Park,1314,3920,1949,34,357,,Active,,,https://www.redfin.com/IL/Chicago/5465-N-Mason-Ave-60630/home/13502709,MRED,11612327,N,Y,41.980399,-87.7766215
MLS Listing,,Condo/Co-op,2 E Erie St #3907,Chicago,IL,60611,360000,1,1.0,CHI - Near North Side,824,,2002,34,437,610,Active,,,https://www.redfin.com/IL/Chicago/2-E-Erie-St-60611/unit-3907/home/12599920,MRED,11478127,N,Y,41.8943685,-87.6275053
MLS Listing,,Multi-Family (2-4 Unit),2903 W Warren Blvd,Chicago,IL,60612,379000,5,3.0,CHI - East Garfield Park,,2613,1885,35,,,Active,,,https://www.redfin.com/IL/Chicago/2903-W-Warren-Blvd-60612/home/180185481,MRED,11617973,N,Y,41.8816942,-87.6990294
MLS Listing,,Multi-Family (2-4 Unit),2128 N Mobile Ave,Chicago,IL,60639,369500,7,3.0,CHI - Belmont Cragin,,3920,1926,41,,,Active,,,https://www.redfin.com/IL/Chicago/2128-N-Mobile-Ave-60639/home/13429060,MRED,11613591,N,Y,41.9191123,-87.7831162
MLS Listing,,Condo/Co-op,1541 W Chestnut St #1,Chicago,IL,60642,649900,3,3.0,CHI - West Town,2600,,2004,42,250,194,Active,,,https://www.redfin.com/IL/Chicago/1541-W-Chestnut-St-60642/unit-1/home/12659323,MRED,11610879,N,Y,41.897697,-87.6664927
MLS Listing,,Condo/Co-op,1620 S Michigan Ave #1022,Chicago,IL,60616,295000,2,1.0,CHI - Near South Side,920,,2003,42,321,362,Active,,,https://www.redfin.com/IL/Chicago/1620-S-Michigan-Ave-60616/unit-1022/home/18916672,MRED,11612189,N,Y,41.859565,-87.6242683
MLS Listing,,Condo/Co-op,1600 S Indiana Ave #506,Chicago,IL,60616,325000,2,2.0,CHI - Near South Side,,,2006,43,,476,Active,,,https://www.redfin.com/IL/Chicago/1600-S-Indiana-Ave-60616/unit-506/home/26820549,MRED,11611400,N,Y,41.8598949,-87.6230088
MLS Listing,,Single Family Residential,1708 N Mcvicker Ave,Chicago,IL,60639,289999,4,1.0,CHI - Austin,2493,,1925,48,116,,Active,,,https://www.redfin.com/IL/Chicago/1708-N-McVicker-Ave-60639/home/13427673,MRED,11486575,N,Y,41.9113967,-87.7768137
MLS Listing,,Townhouse,1608 W Touhy Ave Unit A,Chicago,IL,60626,299999,3,2.0,CHI - Rogers Park,,,1959,48,,,Active,,,https://www.redfin.com/IL/Chicago/1608-W-Touhy-Ave-60626/unit-A/home/13571555,MRED,11479811,N,Y,42.0130448,-87.6706559
MLS Listing,,Condo/Co-op,2657 W Thomas St Unit 1E,Chicago,IL,60622,475000,3,3.0,CHI - West Town,1746,,2002,48,272,276,Active,,,https://www.redfin.com/IL/Chicago/2657-W-Thomas-St-60622/unit-1E/home/12657217,MRED,11607703,N,Y,41.90087,-87.694134
MLS Listing,,Single Family Residential,2826 W Warren Blvd,Chicago,IL,60612,489000,4,3.5,CHI - East Garfield Park,2388,2178,1895,48,205,,Active,,,https://www.redfin.com/IL/Chicago/2826-W-Warren-Blvd-60612/home/13259721,MRED,11490481,N,Y,41.8821993,-87.6972652
MLS Listing,,Single Family Residential,6353 S Kilpatrick Ave,Chicago,IL,60629,339900,5,2.5,Clear Ridge,1200,3746,1961,50,283,,Active,,,https://www.redfin.com/IL/Chicago/6353-S-Kilpatrick-Ave-60629/home/13994844,MRED,11492690,N,Y,41.7768758,-87.7395286
MLS Listing,,Condo/Co-op,802 W George St #2,Chicago,IL,60657,290000,2,1.0,Gaslight Village,900,,1908,51,322,471,Active,,,https://www.redfin.com/IL/Chicago/802-W-George-St-60657/unit-2/home/13363030,MRED,11489624,N,Y,41.934637,-87.6492741
MLS Listing,,Condo/Co-op,226 N Clinton St #225,Chicago,IL,60661,299900,1,1.0,CHI - Near West Side,760,,1996,51,395,408,Active,,,https://www.redfin.com/IL/Chicago/226-N-Clinton-St-60661/unit-225/home/12787630,MRED,11492235,N,Y,41.8862901,-87.6417042
MLS Listing,,Townhouse,934 E 48th St,Chicago,IL,60615,415000,3,2.5,CHI - Kenwood,1800,,2005,51,231,,Active,,,https://www.redfin.com/IL/Chicago/934-E-48th-St-60615/home/12678048,MRED,11492054,N,Y,41.8079369,-87.6024883
MLS Listing,,Condo/Co-op,1449 N Ashland Ave Unit 2R,Chicago,IL,60622,249900,2,1.0,CHI - West Town,800,,,54,312,188,Active,,,https://www.redfin.com/IL/Chicago/1449-N-Ashland-Ave-60622/unit-2R/home/18928359,MRED,11490230,N,Y,41.9084309,-87.6673119
MLS Listing,,Condo/Co-op,235 W Van Buren St #2313,Chicago,IL,60607,320000,2,1.0,CHI - Loop,,,2015,54,,396,Active,,,https://www.redfin.com/IL/Chicago/235-W-Van-Buren-St-60607/unit-2313/home/113099120,MRED,11490207,N,Y,41.8765303,-87.6347529
MLS Listing,,Condo/Co-op,1449 W Walton St #3,Chicago,IL,60642,424900,2,2.0,CHI - West Town,1200,,1997,54,354,166,Active,,,https://www.redfin.com/IL/Chicago/1449-W-Walton-St-60642/unit-3/home/12740919,MRED,11490123,N,Y,41.8986734,-87.6643888
MLS Listing,,Condo/Co-op,1250 S Michigan Ave #1101,Chicago,IL,60605,410500,2,2.0,CHI - Near South Side,1298,,2005,55,316,746,Active,,,https://www.redfin.com/IL/Chicago/1250-S-Michigan-Ave-60605/unit-1101/home/18946568,MRED,11486395,N,Y,41.8659823,-87.6243183
MLS Listing,,Single Family Residential,6259 W Lawrence Ave,Chicago,IL,60630,419999,4,3.0,CHI - Portage Park,2452,,1956,55,171,,Active,,,https://www.redfin.com/IL/Chicago/6259-W-Lawrence-Ave-60630/home/13476425,MRED,11482662,N,Y,41.9672709,-87.784269
MLS Listing,,Condo/Co-op,401 E Ontario St #4204,Chicago,IL,60611,234000,1,1.0,CHI - Near North Side,775,,1990,55,302,680,Active,,,https://www.redfin.com/IL/Chicago/401-E-Ontario-St-60611/unit-4204/home/12765469,MRED,11489174,N,Y,41.893211,-87.616401
MLS Listing,,Single Family Residential,8524 S Seeley Ave,Chicago,IL,60620,235000,3,1.0,CHI - Auburn Gresham,900,,1947,55,261,,Active,,,https://www.redfin.com/IL/Chicago/8524-S-Seeley-Ave-60620/home/13907669,MRED,11488201,N,Y,41.7384943,-87.6743134
MLS Listing,,Condo/Co-op,211 E Ohio St #1607,Chicago,IL,60611,235999,1,1.0,CHI - Near North Side,770,,1984,56,306,589,Active,,,https://www.redfin.com/IL/Chicago/211-E-Ohio-St-60611/unit-1607/home/12764335,MRED,11488594,N,Y,41.8923975,-87.6216907
MLS Listing,,Condo/Co-op,4334 N Clarendon Ave #207,Chicago,IL,60613,196000,1,1.0,Boardwalk,,,1960,56,,345,Active,,,https://www.redfin.com/IL/Chicago/4334-N-Clarendon-Ave-60613/unit-207/home/13394266,MRED,11488014,N,Y,41.9613072,-87.6503276
MLS Listing,,Condo/Co-op,195 N Harbor Dr #4001,Chicago,IL,60601,470000,2,2.0,CHI - Loop,1221,,1996,57,385,1100,Active,,,https://www.redfin.com/IL/Chicago/195-N-Harbor-Dr-60601/unit-4001/home/14093402,MRED,11478402,N,Y,41.8856057,-87.6155531
MLS Listing,,Single Family Residential,949 N Karlov Ave,Chicago,IL,60651,270000,3,2.0,CHI - Humboldt Park,,,1913,58,,,Active,,,https://www.redfin.com/IL/Chicago/949-N-Karlov-Ave-60651/home/13282850,MRED,11486576,N,Y,41.8985931,-87.7283627
MLS Listing,,Multi-Family (2-4 Unit),3537 W Jackson Blvd,Chicago,IL,60624,525000,8,3.0,CHI - East Garfield Park,,3484,1901,62,,,Active,,,https://www.redfin.com/IL/Chicago/3537-W-Jackson-Blvd-60624/home/13256778,MRED,11474746,N,Y,41.8770057,-87.7150502
MLS Listing,,Multi-Family (2-4 Unit),2318 N Sacramento Ave,Chicago,IL,60647,1175000,7,6.0,CHI - Logan Square,,4356,1925,62,,,Active,,,https://www.redfin.com/IL/Chicago/2318-N-Sacramento-Ave-60647/home/13418463,MRED,11480377,N,Y,41.9238893,-87.7026549
MLS Listing,,Condo/Co-op,340 W Diversey Pkwy #1120,Chicago,IL,60657,360000,3,2.0,Commonwealth Plaza,1400,,1957,64,257,1270,Active,,,https://www.redfin.com/IL/Chicago/340-W-Diversey-Pkwy-60657/unit-1120/home/13369741,MRED,11444921,N,Y,41.9334139,-87.6389044
MLS Listing,,Single Family Residential,3613 W 64th Pl,Chicago,IL,60629,279900,3,1.5,CHI - West Lawn,1640,,1913,64,171,,Active,,,https://www.redfin.com/IL/Chicago/3613-W-64th-Pl-60629/home/13990916,MRED,11481355,N,Y,41.7758451,-87.7135863
MLS Listing,,Single Family Residential,8840 S Mozart Ave,Evergreen Park,IL,60805,264900,2,1.0,Evergreen Park,629,,1938,64,421,,Active,,,https://www.redfin.com/IL/Evergreen-Park/8840-S-Mozart-Ave-60805/home/13187947,MRED,11476857,N,Y,41.7322865,-87.6937712
MLS Listing,,Multi-Family (2-4 Unit),9024 S Houston Ave,Chicago,IL,60617,145000,5,3.0,CHI - South Chicago,,,1890,68,,,Active,,,https://www.redfin.com/IL/Chicago/9024-S-Houston-Ave-60617/home/13042455,MRED,11468295,N,Y,41.7311427,-87.550156
MLS Listing,,Single Family Residential,3358 S Leavitt St,Chicago,IL,60608,495000,3,2.0,CHI - McKinley Park,1232,,1890,68,402,,Active,,,https://www.redfin.com/IL/Chicago/3358-S-Leavitt-St-60608/home/14078135,MRED,11477836,N,Y,41.8322624,-87.6804749
MLS Listing,,Condo/Co-op,65 E Monroe St #4312,Chicago,IL,60603,509000,2,2.0,CHI - Loop,1280,,2008,71,398,905,Active,,,https://www.redfin.com/IL/Chicago/65-E-Monroe-St-60603/unit-4312/home/39567215,MRED,11474948,N,Y,41.8806386,-87.6255308
MLS Listing,,Condo/Co-op,1525 S Sangamon St Unit 805-P,Chicago,IL,60608,519000,2,2.0,University Village,1600,,2001,82,324,870,Active,,,https://www.redfin.com/IL/Chicago/1525-S-Sangamon-St-60608/unit-805-P/home/12573413,MRED,11370278,N,Y,41.8607427,-87.6494388
MLS Listing,,Condo/Co-op,7231 N Damen Ave #2,Chicago,IL,60645,134999,2,1.0,CHI - Rogers Park,745,,1920,83,181,283,Active,,,https://www.redfin.com/IL/Chicago/7231-N-Damen-Ave-60645/unit-2/home/12636715,MRED,11454288,N,Y,42.0135143,-87.6799776
MLS Listing,,Multi-Family (2-4 Unit),8601 S Essex Ave,Chicago,IL,60617,245000,10,3.0,CHI - South Chicago,,3920,1920,60,,,Active,,,https://www.redfin.com/IL/Chicago/8601-S-Essex-Ave-60617/home/13212418,MRED,11458294,N,Y,41.7389239,-87.5633195
MLS Listing,,Single Family Residential,7224 N Hamilton Ave,Chicago,IL,60645,869000,6,3.5,CHI - West Ridge,4459,4356,2001,90,195,,Active,,,https://www.redfin.com/IL/Chicago/7224-N-Hamilton-Ave-60645/home/13572907,MRED,11454557,N,Y,42.0129909,-87.6854012
MLS Listing,,Condo/Co-op,118 E Erie St Unit 37H,Chicago,IL,60611,2800000,3,3.5,CHI - Near North Side,3661,,2014,90,765,6579,Active,,,https://www.redfin.com/IL/Chicago/118-E-Erie-St-60611/unit-37H/home/113099537,MRED,11444036,N,Y,41.8942887,-87.6246388
MLS Listing,,Condo/Co-op,5036 W Pensacola Ave #302,Chicago,IL,60641,299000,2,2.0,CHI - Portage Park,1357,,2007,90,220,360,Active,,,https://www.redfin.com/IL/Chicago/5036-W-Pensacola-Ave-60641/unit-302/home/12609147,MRED,11448220,N,Y,41.9599164,-87.7534847
MLS Listing,,Condo/Co-op,1464 S Michigan Ave #301,Chicago,IL,60605,538000,3,2.0,CHI - Near South Side,1387,,2008,90,388,711,Active,,,https://www.redfin.com/IL/Chicago/1464-S-Michigan-Ave-60605/unit-301/home/39570940,MRED,11368741,N,Y,41.8622613,-87.624234
MLS Listing,,Condo/Co-op,945 N Honore St #1,Chicago,IL,60622,779399,3,2.5,CHI - West Town,2700,,2002,97,289,227,Active,,,https://www.redfin.com/IL/Chicago/945-N-Honore-St-60622/unit-1/home/12707114,MRED,11444781,N,Y,41.8990937,-87.6731731
MLS Listing,,Condo/Co-op,5019 River Rd Unit 1W,Schiller Park,IL,60176,169900,2,1.0,Schiller Park,850,,1968,98,200,200,Active,,,https://www.redfin.com/IL/Schiller-Park/5019-River-Rd-60176/unit-1W/home/12609923,MRED,11447884,N,Y,41.9699422,-87.8610753
MLS Listing,,Single Family Residential,10527 S Oakley Ave,Chicago,IL,60643,375900,3,1.5,CHI - Beverly,2198,6141,1933,106,171,,Active,October-8-2022 01:00 PM,October-8-2022 03:00 PM,https://www.redfin.com/IL/Chicago/10527-S-Oakley-Ave-60643/home/13072626,MRED,11441539,N,Y,41.7019484,-87.6787972
MLS Listing,,Single Family Residential,2104 N Cleveland Ave,Chicago,IL,60614,2800000,5,4.0,CHI - Lincoln Park,4709,3484,1977,111,595,,Active,,,https://www.redfin.com/IL/Chicago/2104-N-Cleveland-Ave-60614/home/13349768,MRED,11282179,N,Y,41.9204665,-87.641556
MLS Listing,,Multi-Family (2-4 Unit),1145 W 17th St,Chicago,IL,60608,299999,5,2.0,CHI - Lower West Side,,2613,1885,117,,,Active,,,https://www.redfin.com/IL/Chicago/1145-W-17th-St-60608/home/14085909,MRED,11422536,N,Y,41.8587114,-87.655195
MLS Listing,,Condo/Co-op,1510 N Greenview Ave Unit 2F,Chicago,IL,60642,228000,1,1.0,CHI - West Town,700,,2004,118,326,116,Active,,,https://www.redfin.com/IL/Chicago/1510-N-Greenview-Ave-60642/unit-2F/home/18928361,MRED,11428224,N,Y,41.9092364,-87.6654537
MLS Listing,,Single Family Residential,12027 Ann St,Blue Island,IL,60406,209900,5,2.0,Blue Island,1596,3179,1955,88,132,,Active,,,https://www.redfin.com/IL/Blue-Island/12027-Ann-St-60406/home/13131851,MRED,11392843,N,Y,41.6746004,-87.6839842
MLS Listing,,Single Family Residential,3306 W Pierce Ave,Chicago,IL,60651,640000,2,1.5,CHI - Humboldt Park,1825,5309,1950,114,351,,Active,,,https://www.redfin.com/IL/Chicago/3306-W-Pierce-Ave-60651/home/13285637,MRED,11301211,N,Y,41.9093488,-87.709853
Redfin Data,,Single Family Residential,8813 S Paulina St,Chicago,IL,60620,274900,5,3.0,Chicago,2400,3123,1959,1,115,,Pre On-Market,,,https://www.redfin.com/IL/Chicago/8813-S-Paulina-St-60620/home/13102143,Coming Soon,89655,N,Y,41.7334888,-87.6651448
Redfin Data,,Multi-Family (2-4 Unit),2259 N Laporte Ave,Chicago,IL,60639,529999,6,3.0,Chicago,2704,6250,1925,1,196,,Pre On-Market,,,https://www.redfin.com/IL/Chicago/2259-N-Laporte-Ave-60639/home/13425756,Coming Soon,89651,N,Y,41.9222638,-87.74963
Redfin Data,,Condo/Co-op,8625 W Foster Ave Unit 2B,Chicago,IL,60656,179999,2,1.5,Chicago,800,,1975,1,225,250,Pre On-Market,,,https://www.redfin.com/IL/Chicago/8625-W-Foster-Ave-60656/unit-2B/home/12718966,Coming Soon,89649,N,Y,41.9726917,-87.8421654
Redfin Data,,Single Family Residential,4047 N Drake Ave,Chicago,IL,60618,459999,4,1.5,Chicago,1215,3150,1904,5,379,,Pre On-Market,,,https://www.redfin.com/IL/Chicago/4047-N-Drake-Ave-60618/home/13482886,Coming Soon,89568,N,Y,41.9552302,-87.7163447
Redfin Data,,Single Family Residential,3638 N Oconto Ave,Chicago,IL,60634,410000,3,2.0,Chicago,1624,4477,1946,6,252,,Pre On-Market,,,https://www.redfin.com/IL/Chicago/3638-N-Oconto-Ave-60634/home/13543603,Coming Soon,89541,N,Y,41.9464027,-87.8085479
Redfin Data,,Multi-Family (2-4 Unit),9035 S Exchange Ave,Chicago,IL,60617,375000,11,3.0,Chicago,,3475,1891,7,,,Pre On-Market,,,https://www.redfin.com/IL/Chicago/9035-S-Exchange-Ave-60617/home/13043013,Coming Soon,89519,N,Y,41.7308416,-87.5524544
Redfin Data,,Townhouse,3759 S Morgan St Unit C,Chicago,IL,60609,500000,4,2.5,Chicago,2700,,2016,8,185,275,Pre On-Market,,,https://www.redfin.com/IL/Chicago/3759-S-Morgan-St-60609/unit-C/home/144510515,Coming Soon,89511,N,Y,41.825915,-87.6500589
Redfin Data,,Single Family Residential,5004 N Tripp Ave,Chicago,IL,60630,369999,3,1.5,Chicago,1419,3810,1927,8,261,,Pre On-Market,,,https://www.redfin.com/IL/Chicago/5004-N-Tripp-Ave-60630/home/13495548,Coming Soon,89505,N,Y,41.9720332,-87.734595
Redfin Data,,Condo/Co-op,"1908 W Irving Park Rd., #404",Chicago,IL,60613,649000,3,2.0,Chicago,1600,,2003,26,406,310,Pre On-Market,,,https://www.redfin.com/IL/Chicago/1908-W-Irving-Park-Rd-60613/unit-404/home/12663755,Coming Soon,89171,N,Y,41.954482,-87.676816
Redfin Data,,Condo/Co-op,3950 N Lake Shore Dr #718,Chicago,IL,60613,140000,1,1.0,Chicago,850,,,63,165,685,Pre On-Market,,,https://www.redfin.com/IL/Chicago/3950-N-Lake-Shore-Dr-60613/unit-718/home/13380743,Coming Soon,88294,N,Y,41.954247,-87.6458578
MLS Listing,,Single Family Residential,3623 W Lexington St,Chicago,IL,60624,210000,3,1.5,CHI - East Garfield Park,2050,2047,1898,1,102,,Active,,,https://www.redfin.com/IL/Chicago/3623-W-Lexington-St-60624/home/26811347,MRED,11646300,N,Y,41.8715448,-87.7164528
MLS Listing,,Single Family Residential,2040 N Hamlin Ave,Chicago,IL,60647,740000,4,3.5,CHI - Logan Square,,,2017,1,,,Active,,,https://www.redfin.com/IL/Chicago/2040-N-Hamlin-Ave-60647/home/109054782,MRED,11646288,N,Y,41.9184904,-87.7219467
MLS Listing,,Condo/Co-op,5310 N Chester Ave #118,Chicago,IL,60656,115000,1,1.0,CHI - O'Hare,600,,1973,1,192,247,Active,,,https://www.redfin.com/IL/Chicago/5310-N-Chester-Ave-60656/unit-118/home/21817021,MRED,11646280,N,Y,41.9761677,-87.8400103
MLS Listing,,Condo/Co-op,2405 W Balmoral Ave Unit 2A,Chicago,IL,60625,125000,1,1.0,CHI - Lincoln Square,750,,1959,1,167,245,Active,,,https://www.redfin.com/IL/Chicago/2405-W-Balmoral-Ave-60625/unit-2A/home/26804664,MRED,11646276,N,Y,41.9790979,-87.6896563
MLS Listing,,Multi-Family (2-4 Unit),1118 N Parkside Ave,Chicago,IL,60651,350000,9,3.0,CHI - Austin,,10890,1895,1,,,Active,,,https://www.redfin.com/IL/Chicago/1118-N-Parkside-Ave-60651/home/13276297,MRED,11646277,N,Y,41.9009012,-87.7671276
MLS Listing,,Vacant Land,6714 S Perry Ave S,Chicago,IL,60621,99000,,,CHI - Greater Grand Crossing,,,,1,,,Active,,,https://www.redfin.com/IL/Chicago/6714-S-Perry-Ave-60621/home/147915768,MRED,11646272,N,Y,41.7722254,-87.6286448
MLS Listing,,Multi-Family (2-4 Unit),5427 S Wolcott Ave,Chicago,IL,60609,350000,4,2.0,CHI - New City,,,1908,1,,,Active,,,https://www.redfin.com/IL/Chicago/5427-S-Wolcott-Ave-60609/home/13955021,MRED,11646268,N,Y,41.794953,-87.6716447
MLS Listing,,Condo/Co-op,3731 N Saint Louis Ave Unit 2R,Chicago,IL,60618,149990,2,1.0,CHI - Irving Park,,,1914,1,,246,Active,,,https://www.redfin.com/IL/Chicago/3731-N-St-Louis-Ave-60618/unit-2R/home/12617458,MRED,11646259,N,Y,41.9493269,-87.7148866
MLS Listing,,Single Family Residential,,Chicago,IL,60631,422000,3,1.5,CHI - Edison Park,1100,4438,1947,1,384,,Active,,,https://www.redfin.com/IL/Chicago/Undisclosed-address-60631/home/13635727,MRED,11646256,N,Y,41.9976846,-87.8165355
MLS Listing,,Condo/Co-op,6206 N Francisco Ave Unit 2C,Chicago,IL,60659,89900,1,1.0,CHI - West Ridge,550,,1931,1,163,200,Active,,,https://www.redfin.com/IL/Chicago/6206-N-Francisco-Ave-60659/unit-2C/home/12594092,MRED,11646251,N,Y,41.9942579,-87.7022979
MLS Listing,,Single Family Residential,527 N Ridgeway Ave,Chicago,IL,60624,349999,3,3.5,CHI - Humboldt Park,2100,3249,,1,167,,Active,October-8-2022 10:00 AM,October-8-2022 11:30 AM,https://www.redfin.com/IL/Chicago/527-N-Ridgeway-Ave-60624/home/13261995,MRED,11646248,N,Y,41.8907554,-87.7196098
MLS Listing,,Multi-Family (2-4 Unit),12005 S La Salle St,Chicago,IL,60628,239900,4,2.0,CHI - West Pullman,,,1924,1,,,Active,October-8-2022 01:00 PM,October-8-2022 03:00 PM,https://www.redfin.com/IL/Chicago/12005-S-La-Salle-St-60628/home/13057492,MRED,11439671,N,Y,41.6759415,-87.6259457
MLS Listing,,Condo/Co-op,7450 N Claremont Ave Unit 3N,Chicago,IL,60645,249900,3,2.0,CHI - West Ridge,1716,,,1,146,544,Active,October-9-2022 11:00 AM,October-9-2022 01:00 PM,https://www.redfin.com/IL/Chicago/7450-N-Claremont-Ave-60645/unit-3N/home/105514599,MRED,11646239,N,Y,42.017121,-87.689223
MLS Listing,,Single Family Residential,8441 S Paxton Ave,Chicago,IL,60617,289000,4,2.0,CHI - South Chicago,3750,,1923,1,77,,Active,,,https://www.redfin.com/IL/Chicago/8441-S-Paxton-Ave-60617/home/13217758,MRED,11646238,N,Y,41.7413826,-87.5706956
MLS Listing,,Condo/Co-op,2134 W Pierce Ave #3,Chicago,IL,60622,1025000,3,2.5,CHI - West Town,,,1899,1,,325,Active,,,https://www.redfin.com/IL/Chicago/2134-W-Pierce-Ave-60622/unit-3/home/182150411,MRED,11646232,N,Y,41.9096084,-87.6811886
MLS Listing,,Condo/Co-op,4559 S Michigan Ave Unit 1S,Chicago,IL,60653,299900,3,2.0,CHI - Grand Boulevard,,,2022,1,,154,Active,October-8-2022 11:00 AM,October-8-2022 12:00 PM,https://www.redfin.com/IL/Chicago/4559-S-Michigan-Ave-60653/unit-1S/home/182150213,MRED,11646228,N,Y,41.811419,-87.6224084
MLS Listing,,Condo/Co-op,1835 N Halsted St #10,Chicago,IL,60614,699900,2,2.5,CHI - Lincoln Park,,,,1,,391,Active,October-8-2022 10:00 AM,October-8-2022 12:00 PM,https://www.redfin.com/IL/Chicago/1835-N-Halsted-St-60614/unit-10/home/13347546,MRED,11646216,N,Y,41.9147636,-87.6481434
MLS Listing,,Single Family Residential,600 E 88th Pl,Chicago,IL,60619,185000,3,1.0,CHI - Chatham,1154,3123,1940,1,160,,Active,,,https://www.redfin.com/IL/Chicago/600-E-88th-Pl-60619/home/13112225,MRED,11646214,N,Y,41.7340574,-87.6094389
MLS Listing,,Condo/Co-op,523 N Racine Ave #4,Chicago,IL,60642,425000,2,2.0,CHI - West Town,1500,,2004,1,283,197,Active,October-8-2022 12:30 PM,October-8-2022 02:00 PM,https://www.redfin.com/IL/Chicago/523-N-Racine-Ave-60642/unit-4/home/12640500,MRED,11646215,N,Y,41.8918482,-87.6571388
MLS Listing,,Multi-Family (2-4 Unit),1243 S 61st Ave,Cicero,IL,60804,399900,6,3.0,Cicero,,3920,1961,1,,,Active,,,https://www.redfin.com/IL/Cicero/1243-S-61st-Ave-60804/home/13242589,MRED,11646207,N,Y,41.8639279,-87.7763044
MLS Listing,,Multi-Family (2-4 Unit),5212 S King Dr S,Chicago,IL,60615,890000,15,8.0,CHI - Washington Park,,,1908,1,,,Active,,,https://www.redfin.com/IL/Chicago/5212-S-King-Dr-60615/home/13949957,MRED,11646204,N,Y,41.799819,-87.616567
MLS Listing,,Condo/Co-op,1255 N Sandburg Ter #209,Chicago,IL,60610,229000,1,1.0,CHI - Near North Side,750,,1969,1,305,511,Active,,,https://www.redfin.com/IL/Chicago/1255-N-Sandburg-Ter-60610/unit-209/home/182149798,MRED,11646197,N,Y,41.9054286,-87.6319398
MLS Listing,,Condo/Co-op,6171 N Sheridan Rd #1309,Chicago,IL,60660,158000,1,1.0,CHI - Edgewater,,,,1,,543,Active,,,https://www.redfin.com/IL/Chicago/6171-N-Sheridan-Rd-60660/unit-1309/home/13413384,MRED,11646196,N,Y,41.9944051,-87.6549099
MLS Listing,,Multi-Family (2-4 Unit),3087 N Elbridge Ave,Chicago,IL,60618,1499900,7,6.0,CHI - Avondale,,,1910,1,,,Active,October-8-2022 11:00 AM,October-8-2022 12:30 PM,https://www.redfin.com/IL/Chicago/3087-N-Elbridge-Ave-60618/home/13448613,MRED,11626672,N,Y,41.9369879,-87.7146639
MLS Listing,,Vacant Land,1532 S Kolin Ave,Chicago,IL,60623,30000,,,Lawndale,,3484,,1,,,Active,,,https://www.redfin.com/IL/Chicago/1532-S-Kolin-Ave-60623/home/147909153,MRED,11646193,N,Y,41.859605,-87.733883
MLS Listing,,Vacant Land,5518 S Bishop St,Chicago,IL,60636,30000,,,CHI - West Englewood,,2613,,1,,,Active,,,https://www.redfin.com/IL/Chicago/5518-S-Bishop-St-60636/home/148048997,MRED,11646189,N,Y,41.7930711,-87.6612064
MLS Listing,,Single Family Residential,1338 W 99th St,Chicago,IL,60643,349900,5,3.0,CHI - Washington Heights,3000,3624,,1,117,,Active,,,https://www.redfin.com/IL/Chicago/1338-W-99th-St-60643/home/13097224,MRED,11646178,N,Y,41.7142651,-87.656668
MLS Listing,,Single Family Residential,6943 N Tonty Ave,Chicago,IL,60646,695000,4,2.5,Wildwood,2121,,1965,1,328,,Active,,,https://www.redfin.com/IL/Chicago/6943-N-Tonty-Ave-60646/home/13593122,MRED,11646177,N,Y,42.0070751,-87.7746038
MLS Listing,,Single Family Residential,1935 N Dayton St,Chicago,IL,60614,1799000,5,5.5,CHI - Lincoln Park,5470,,,1,329,,Active,October-16-2022 11:30 AM,October-16-2022 01:00 PM,https://www.redfin.com/IL/Chicago/1935-N-Dayton-St-60614/home/13350834,MRED,11646173,N,Y,41.9170554,-87.649397
MLS Listing,,Single Family Residential,8004 S Wabash Ave,Chicago,IL,60619,280000,3,2.0,CHI - Chatham,4850,,1953,1,58,,Active,,,https://www.redfin.com/IL/Chicago/8004-S-Wabash-Ave-60619/home/13227177,MRED,11646171,N,Y,41.7489257,-87.6232526
MLS Listing,,Multi-Family (2-4 Unit),6915 S Racine Ave,Chicago,IL,60636,43900,4,2.0,CHI - Englewood,,3049,1871,1,,,Active,,,https://www.redfin.com/IL/Chicago/6915-S-Racine-Ave-60636/home/13931118,MRED,11646167,N,Y,41.7681597,-87.6539705
MLS Listing,,Condo/Co-op,130 N Garland Ct #4202,Chicago,IL,60602,850000,3,2.0,CHI - Loop,1695,,2005,1,501,1072,Active,October-8-2022 12:00 PM,October-8-2022 03:00 PM,https://www.redfin.com/IL/Chicago/130-N-Garland-Ct-60602/unit-4202/home/12620701,MRED,11646163,N,Y,41.8841055,-87.625965
MLS Listing,,Single Family Residential,1929 N Harding Ave,Chicago,IL,60647,625000,4,5.0,CHI - Hermosa,,,,1,,,Active,October-8-2022 01:30 PM,October-8-2022 03:00 PM,https://www.redfin.com/IL/Chicago/1929-N-Harding-Ave-60647/home/13420352,MRED,11646166,N,Y,41.9162343,-87.7250322
MLS Listing,,Condo/Co-op,10652 S Langley Ave #0,Chicago,IL,60628,95500,2,1.5,CHI - Pullman,,,,1,,,Active,,,https://www.redfin.com/IL/Chicago/10652-S-Langley-Ave-60628/home/13079922,MRED,11646160,N,Y,41.700488,-87.6064743
MLS Listing,,Multi-Family (2-4 Unit),5550 W Sunnyside Ave,Chicago,IL,60630,599000,7,3.5,CHI - Portage Park,,,1970,1,,,Active,,,https://www.redfin.com/IL/Chicago/5550-W-Sunnyside-Ave-60630/home/13479643,MRED,11646157,N,Y,41.9625794,-87.7668393
MLS Listing,,Condo/Co-op,2819 N Lakewood Ave Unit 3N,Chicago,IL,60657,499900,2,2.0,CHI - Lake View,,,2005,1,,180,Active,October-8-2022 11:00 AM,October-8-2022 12:30 PM,https://www.redfin.com/IL/Chicago/2819-N-Lakewood-Ave-60657/unit-3N/home/21795568,MRED,11646156,N,Y,41.933196,-87.660788
MLS Listing,,Multi-Family (2-4 Unit),3520 S Prairie Ave,Chicago,IL,60653,529999,4,3.0,Bronzeville,,,2001,1,,,Active,,,https://www.redfin.com/IL/Chicago/3520-S-Prairie-Ave-60653/home/12733644,MRED,11646138,N,Y,41.8304172,-87.6207783
MLS Listing,,Single Family Residential,5102 N Marmora Ave,Chicago,IL,60630,515000,4,2.0,CHI - Jefferson Park,2300,6573,1953,1,224,,Active,October-8-2022 12:00 PM,October-8-2022 02:00 PM,https://www.redfin.com/IL/Chicago/5102-N-Marmora-Ave-60630/home/13500028,MRED,11646133,N,Y,41.9740909,-87.7760882
MLS Listing,,Single Family Residential,9023 S Oglesby Ave,Chicago,IL,60617,309000,4,2.0,CHI - Calumet Heights,,3750,1957,1,,,Active,,,https://www.redfin.com/IL/Chicago/9023-S-Oglesby-Ave-60617/home/13116795,MRED,11475063,N,Y,41.7309883,-87.5667944
MLS Listing,,Condo/Co-op,2712 W Balmoral Ave Unit 1E,Chicago,IL,60625,230000,2,1.0,CHI - Lincoln Square,776,,1979,1,296,,Active,,,https://www.redfin.com/IL/Chicago/2712-W-Balmoral-Ave-60625/unit-1E/home/13491426,MRED,11646111,N,Y,41.9796903,-87.6972267
MLS Listing,,Single Family Residential,6952 S Morgan St S,Chicago,IL,60621,140000,1,1.0,CHI - Englewood,1792,,1915,1,78,,Active,,,https://www.redfin.com/IL/Chicago/6952-S-Morgan-St-60621/home/13931375,MRED,11646101,N,Y,41.767216,-87.6498102
MLS Listing,,Multi-Family (2-4 Unit),2503 N Talman Ave,Chicago,IL,60647,1175000,8,4.0,CHI - Logan Square,,3049,1895,1,,,Active,,,https://www.redfin.com/IL/Chicago/2503-N-Talman-Ave-60647/home/13449932,MRED,11646096,N,Y,41.9268455,-87.6935691
MLS Listing,,Multi-Family (2-4 Unit),5250 W Grace St,Chicago,IL,60641,399900,6,2.0,CHI - Portage Park,,,1918,1,,,Active,,,https://www.redfin.com/IL/Chicago/5250-W-Grace-St-60641/home/180873311,MRED,11646088,N,Y,41.9498253,-87.7590159
MLS Listing,,Condo/Co-op,3660 N Lake Shore Dr #4201,Chicago,IL,60613,550000,2,2.0,CHI - Lake View,,,1987,1,,897,Active,October-8-2022 10:00 AM,October-8-2022 12:00 PM,https://www.redfin.com/IL/Chicago/3660-N-Lake-Shore-Dr-60613/unit-4201/home/12742970,MRED,11646084,N,Y,41.949859,-87.6457899
MLS Listing,,Single Family Residential,8001 S Wentworth Ave,Chicago,IL,60620,215000,4,1.5,CHI - Chatham,1500,,1963,1,143,,Active,,,https://www.redfin.com/IL/Chicago/8001-S-Wentworth-Ave-60620/home/13228200,MRED,11646072,N,Y,41.7489208,-87.6290304
MLS Listing,,Condo/Co-op,920 W Madison St Unit B5,Chicago,IL,60607,619000,2,2.0,CHI - Near West Side,1500,,2002,1,413,598,Active,,,https://www.redfin.com/IL/Chicago/920-W-Madison-St-60607/unit-B5/home/12649498,MRED,11646070,N,Y,41.8818669,-87.6505596
MLS Listing,,Single Family Residential,5052 N Merrimac Ave,Chicago,IL,60630,499000,6,2.0,CHI - Jefferson Park,2997,4961,1950,1,166,,Active,,,https://www.redfin.com/IL/Chicago/5052-N-Merrimac-Ave-60630/home/13499958,MRED,11646074,N,Y,41.9735853,-87.784538
MLS Listing,,Single Family Residential,1315 N Wicker Park Ave,Chicago,IL,60622,949900,3,4.0,CHI - West Town,2932,1999,1891,1,324,,Active,October-8-2022 11:00 AM,October-8-2022 01:00 PM,https://www.redfin.com/IL/Chicago/1315-N-Wicker-Park-Ave-60622/home/180890353,MRED,11646068,N,Y,41.9062453,-87.6724378
MLS Listing,,Condo/Co-op,1350 N Astor St Unit 9B,Chicago,IL,60610,249000,2,2.0,CHI - Near North Side,1173,,1950,1,212,1039,Active,,,https://www.redfin.com/IL/Chicago/1350-N-Astor-St-60610/unit-9B/home/182148533,MRED,11646060,N,Y,41.9074012,-87.6279701
MLS Listing,,Condo/Co-op,1350 N Astor St Unit 9C,Chicago,IL,60610,299000,2,2.0,CHI - Near North Side,1198,,1950,1,250,1039,Active,,,https://www.redfin.com/IL/Chicago/1350-N-Astor-St-60610/unit-9C/home/182148532,MRED,11646061,N,Y,41.9074012,-87.6279701
MLS Listing,,Condo/Co-op,234 W Polk St #2307,Chicago,IL,60607,512000,1,1.0,CHI - Near West Side,,,2023,1,,470,Active,October-9-2022 12:00 PM,October-9-2022 02:00 PM,https://www.redfin.com/IL/Chicago/234-W-Polk-St-60605/unit-2307/home/174691939,MRED,11646047,N,Y,41.8721463,-87.6335715
MLS Listing,,Single Family Residential,2836 W Leland Ave,Chicago,IL,60625,775000,4,2.0,CHI - Albany Park,2250,5445,1916,1,344,,Active,October-8-2022 01:00 PM,October-8-2022 03:00 PM,https://www.redfin.com/IL/Chicago/2836-W-Leland-Ave-60625/home/13490050,MRED,11646046,N,Y,41.9669932,-87.7002
MLS Listing,,Single Family Residential,5109 S Kimbark Ave,Chicago,IL,60615,750000,5,4.5,CHI - Hyde Park,4500,2748,1895,1,167,,Active,October-8-2022 12:00 PM,October-8-2022 02:00 PM,https://www.redfin.com/IL/Chicago/5109-S-Kimbark-Ave-60615/home/13949325,MRED,11646044,N,Y,41.8020065,-87.5946625
MLS Listing,,Condo/Co-op,2753 N Hampden Ct Unit 2C,Chicago,IL,60614,1698500,3,2.5,CHI - Lincoln Park,2205,,2019,1,770,516,Active,,,https://www.redfin.com/IL/Chicago/2753-N-Hampden-Ct-60614/unit-2c/home/144232687,MRED,11646035,N,Y,41.9322901,-87.6420418
MLS Listing,,Condo/Co-op,221 E Cullerton St #514,Chicago,IL,60616,275000,1,1.0,CHI - Near South Side,,,2001,1,,387,Active,,,https://www.redfin.com/IL/Chicago/221-E-Cullerton-St-60616/unit-514/home/12692252,MRED,11646027,N,Y,41.8553079,-87.6210253
MLS Listing,,Single Family Residential,4943 N Karlov Ave,Chicago,IL,60630,479900,4,3.0,CHI - Albany Park,2292,4234,1927,1,209,,Active,,,https://www.redfin.com/IL/Chicago/4943-N-Karlov-Ave-60630/home/13495431,MRED,11646018,N,Y,41.9713367,-87.7303301
MLS Listing,,Condo/Co-op,1313 N Ritchie Ct #1305,Chicago,IL,60610,340000,1,1.0,CHI - Near North Side,1300,,1972,1,262,746,Active,,,https://www.redfin.com/IL/Chicago/1313-N-Ritchie-Ct-60610/unit-1305/home/14125092,MRED,11646014,N,Y,41.9061626,-87.6261578
MLS Listing,,Condo/Co-op,1940 N Whipple St #3,Chicago,IL,60647,619900,3,2.0,CHI - Logan Square,,,2019,1,,154,Active,October-9-2022 11:00 AM,October-9-2022 01:00 PM,https://www.redfin.com/IL/Chicago/1940-N-Whipple-St-60647/unit-3/home/182148190,MRED,11646009,N,Y,41.9168232,-87.7043198
MLS Listing,,Multi-Family (2-4 Unit),225 W 108th Pl,Chicago,IL,60628,350000,4,2.0,CHI - Roseland,,,1913,1,,,Active,,,https://www.redfin.com/IL/Chicago/225-W-108th-Pl-60628/home/13075716,MRED,11645996,N,Y,41.6968602,-87.629026
MLS Listing,,Single Family Residential,639 W Surf St,Chicago,IL,60657,1150000,4,3.5,CHI - Lake View,3381,1925,1890,1,340,,Active,,,https://www.redfin.com/IL/Chicago/639-W-Surf-St-60657/home/13372091,MRED,11645995,N,Y,41.9346185,-87.6457954
MLS Listing,,Single Family Residential,4826 S Long Ave,Chicago,IL,60638,359900,4,1.5,CHI - Garfield Ridge,,,1948,1,,,Active,,,https://www.redfin.com/IL/Chicago/4826-Long-Ave-60638/home/14027365,MRED,11645992,N,Y,41.8046989,-87.7580628
MLS Listing,,Multi-Family (2-4 Unit),3103 W 25th St,Chicago,IL,60623,99900,2,1.0,CHI - South Lawndale,,,1893,1,,,Active,,,https://www.redfin.com/IL/Chicago/3103-W-25th-St-60623/home/13231016,MRED,11645983,N,Y,41.8460427,-87.7028894
MLS Listing,,Single Family Residential,3301 N Panama Ave,Chicago,IL,60634,463000,3,2.5,CHI - Dunning,,5514,1950,1,,,Active,October-8-2022 01:00 PM,October-8-2022 03:00 PM,https://www.redfin.com/IL/Chicago/3301-N-Panama-Ave-60634/home/13545150,MRED,11645984,N,Y,41.9395016,-87.8285911
MLS Listing,,Multi-Family (2-4 Unit),7920 S May St,Chicago,IL,60620,225000,5,3.0,CHI - Auburn Gresham,,,1915,1,,,Active,,,https://www.redfin.com/IL/Chicago/7920-S-May-St-60620/home/182147979,MRED,11645971,N,Y,41.7498479,-87.6527572
MLS Listing,,Condo/Co-op,1235 S Prairie Ave #2109,Chicago,IL,60605,595000,2,2.0,CHI - Near South Side,1510,,2006,1,394,760,Active,,,https://www.redfin.com/IL/Chicago/1235-S-Prairie-Ave-60605/unit-2109/home/18938410,MRED,11645959,N,Y,41.8661749,-87.6213375
MLS Listing,,Condo/Co-op,645 N Kingsbury St N #2601,Chicago,IL,60654,999000,3,2.5,Admirals Pointe,1900,,2002,1,526,1411,Active,October-8-2022 12:00 PM,October-8-2022 02:00 PM,https://www.redfin.com/IL/Chicago/645-N-Kingsbury-St-60654/unit-2601/home/12695401,MRED,11645953,N,Y,41.8933258,-87.6411183
MLS Listing,,Condo/Co-op,130 N Garland Ct #2311,Chicago,IL,60602,1095000,3,2.5,Heritage at Millennium Park,2000,,2005,1,548,1447,Active,,,https://www.redfin.com/IL/Chicago/130-N-Garland-Ct-60602/unit-2311/home/12629119,MRED,11645954,N,Y,41.8841055,-87.625965
MLS Listing,,Townhouse,1920 N Maud Ave Unit E,Chicago,IL,60614,699000,2,2.0,CHI - Lincoln Park,1900,,1989,1,368,417,Active,,,https://www.redfin.com/IL/Chicago/1920-N-Maud-Ave-60614/unit-E/home/13351538,MRED,11645944,N,Y,41.9164051,-87.656013
MLS Listing,,Single Family Residential,3947 W 102nd Pl,Chicago,IL,60655,419000,3,2.0,Tallys Corner,1250,,1985,1,335,,Active,October-8-2022 12:00 PM,October-8-2022 02:00 PM,https://www.redfin.com/IL/Chicago/3947-W-102nd-Pl-60655/home/13162288,MRED,11645943,N,Y,41.706216,-87.720518
MLS Listing,,Single Family Residential,8015 S Richmond St,Chicago,IL,60652,299900,6,2.0,CHI - Ashburn,2200,3781,1953,1,136,,Active,,,https://www.redfin.com/IL/Chicago/8015-S-Richmond-St-60652/home/13964840,MRED,11645937,N,Y,41.7475667,-87.6959273
MLS Listing,,Single Family Residential,5401 S Mobile Ave,Chicago,IL,60638,419000,4,2.5,CHI - Garfield Ridge,2390,4687,1955,1,175,,Active,,,https://www.redfin.com/IL/Chicago/5401-S-Mobile-Ave-60638/home/14026599,MRED,11645934,N,Y,41.7941369,-87.779122
MLS Listing,,Condo/Co-op,1000 N Lake Shore Plz Unit 46B,Chicago,IL,60611,1150000,4,4.5,CHI - Near North Side,3200,,1964,1,359,3192,Active,,,https://www.redfin.com/IL/Chicago/1000-N-Lake-Shore-Dr-60611/unit-46B/home/14121489,MRED,11645938,N,Y,41.9012093,-87.624654
MLS Listing,,Single Family Residential,7532 W Ainslie St,Harwood Heights,IL,60706,399990,4,2.5,Harwood Heights,1152,,1959,1,347,,Active,,,https://www.redfin.com/IL/Harwood-Heights/7532-W-Ainslie-St-60706/home/13555816,MRED,11645918,N,Y,41.9691127,-87.8158443
MLS Listing,,Single Family Residential,6528 S Kildare Ave,Chicago,IL,60629,324900,3,2.0,CHI - West Lawn,,,1953,1,,,Active,,,https://www.redfin.com/IL/Chicago/6528-S-Kildare-Ave-60629/home/13992141,MRED,11645924,N,Y,41.7740669,-87.7302382
MLS Listing,,Condo/Co-op,55 E Erie St #3304,Chicago,IL,60611,935000,3,2.0,CHI - Near North Side,1762,,2004,1,531,1241,Active,,,https://www.redfin.com/IL/Chicago/55-E-Erie-St-60611/unit-3304/home/12670284,MRED,11645921,N,Y,41.8937613,-87.6261578
MLS Listing,,Single Family Residential,1741 N Hermitage Ave,Chicago,IL,60622,1759900,5,3.5,CHI - West Town,,,2007,1,,,Active,October-8-2022 11:00 AM,October-8-2022 01:00 PM,https://www.redfin.com/IL/Chicago/1741-N-Hermitage-Ave-60622/home/18954044,MRED,11645923,N,Y,41.9136085,-87.6710776
MLS Listing,,Condo/Co-op,435 N Michigan Ave #603,Chicago,IL,60611,3050000,3,3.5,Tribune Tower Residences,,,2021,1,,2601,Active,,,https://www.redfin.com/IL/Chicago/435-N-Michigan-Ave-60611/unit-603/home/182147560,MRED,11645912,N,Y,41.8903627,-87.6236499
MLS Listing,,Condo/Co-op,5621 N Spaulding Ave Unit 2S,Chicago,IL,60659,154900,2,1.0,Hollywood Park Condos,900,,1920,1,172,330,Active,,,https://www.redfin.com/IL/Chicago/5621-N-Spaulding-Ave-60659/unit-2S/home/26804368,MRED,11645909,N,Y,41.9837813,-87.7110653
MLS Listing,,Multi-Family (2-4 Unit),5817 W Byron St,Chicago,IL,60634,309900,2,1.5,CHI - Portage Park,,,1917,1,,,Active,,,https://www.redfin.com/IL/Chicago/5817-W-Byron-St-60634/home/13466464,MRED,11645908,N,Y,41.9510785,-87.7725878
MLS Listing,,Multi-Family (2-4 Unit),4600 N Keystone Ave,Chicago,IL,60630,499999,6,3.0,CHI - Albany Park,,,1914,1,,,Active,,,https://www.redfin.com/IL/Chicago/4600-N-Keystone-Ave-60630/home/182147403,MRED,11645900,N,Y,41.964194,-87.7293724
MLS Listing,,Condo/Co-op,363 E Wacker Dr #2901,Chicago,IL,60601,4400000,4,4.0,CHI - Loop,4527,,2020,1,972,2207,Active,,,https://www.redfin.com/IL/Chicago/363-E-Wacker-Dr-60601/unit-2901/home/109071794,MRED,11645898,N,Y,41.8874575,-87.6183727
MLS Listing,,Multi-Family (2-4 Unit),2424 N Lawndale Ave,Chicago,IL,60647,599900,6,3.0,CHI - Logan Square,,3484,1911,1,,,Active,,,https://www.redfin.com/IL/Chicago/2424-N-Lawndale-Ave-60647/home/13447120,MRED,11645893,N,Y,41.9254427,-87.719748
MLS Listing,,Condo/Co-op,227 W Scott St Unit 2W,Chicago,IL,60610,413999,2,2.0,Old Town,,,1999,1,,319,Active,,,https://www.redfin.com/IL/Chicago/227-W-Scott-St-60610/unit-2W/home/12771005,MRED,11645873,N,Y,41.904656,-87.635701
MLS Listing,,Multi-Family (2-4 Unit),8057 S Coles Ave,Chicago,IL,60617,179900,5,2.0,CHI - South Chicago,,,1910,1,,,Active,October-8-2022 11:00 AM,October-8-2022 03:00 PM,https://www.redfin.com/IL/Chicago/8057-S-Coles-Ave-60617/home/13213517,MRED,11645870,N,Y,41.748518,-87.5489241
MLS Listing,,Single Family Residential,1014 W Altgeld St,Chicago,IL,60614,1950000,6,5.5,CHI - Lincoln Park,5350,3223,2004,1,364,,Active,October-9-2022 02:30 PM,October-9-2022 04:00 PM,https://www.redfin.com/IL/Chicago/1014-W-Altgeld-St-60614/home/12682346,MRED,11645867,N,Y,41.9274074,-87.6543498
MLS Listing,,Condo/Co-op,5420 N Sheridan Rd #303,Chicago,IL,60640,150000,2,2.0,CHI - Edgewater,1000,,1965,1,150,511,Active,October-8-2022 02:00 PM,October-8-2022 04:00 PM,https://www.redfin.com/IL/Chicago/5420-N-Sheridan-Rd-60640/unit-303/home/12774680,MRED,11645862,N,Y,41.9806647,-87.6554706
MLS Listing,,Single Family Residential,1758 W 94th St,Chicago,IL,60643,489900,4,3.0,Beverly Hills,2400,,1932,1,204,,Active,October-8-2022 12:00 PM,October-8-2022 02:00 PM,https://www.redfin.com/IL/Chicago/1758-W-94th-St-60643/home/13099291,MRED,11645853,N,Y,41.7231863,-87.6670711
MLS Listing,,Single Family Residential,7336 S Honore St,Chicago,IL,60636,199900,6,2.0,CHI - West Englewood,1288,3123,1920,1,155,,Active,,,https://www.redfin.com/IL/Chicago/7336-S-Honore-St-60636/home/12565295,MRED,11645855,N,Y,41.7601316,-87.669999
MLS Listing,,Single Family Residential,2643 N Paulina St,Chicago,IL,60614,1725000,5,4.5,CHI - Lincoln Park,5000,3114,2005,1,345,,Active,,,https://www.redfin.com/IL/Chicago/2643-N-Paulina-St-60614/home/12698369,MRED,11645833,N,Y,41.9299915,-87.6704131
MLS Listing,,Condo/Co-op,161 E Chicago Ave Unit 26A,Chicago,IL,60611,979900,3,3.5,Olympia Centre,2688,,1985,1,365,1792,Active,,,https://www.redfin.com/IL/Chicago/161-E-Chicago-Ave-60611/unit-26A/home/14099574,MRED,11645827,N,Y,41.8964162,-87.6233837
MLS Listing,,Single Family Residential,10756 S Eggleston Ave,Chicago,IL,60628,79900,3,1.0,CHI - Roseland,1200,4517,1921,1,67,,Active,,,https://www.redfin.com/IL/Chicago/10756-S-Eggleston-Ave-60628/home/13077427,MRED,11645824,N,Y,41.6980689,-87.6343459
MLS Listing,,Condo/Co-op,2702 N Laramie Ave #3,Chicago,IL,60639,115000,2,1.0,CHI - Belmont Cragin,650,,,1,177,307,Active,,,https://www.redfin.com/IL/Chicago/2702-N-Laramie-Ave-60639/unit-3/home/26806171,MRED,11645825,N,Y,41.929732,-87.7565728
MLS Listing,,Condo/Co-op,3410 N Lake Shore Dr Unit 4F,Chicago,IL,60657,224900,2,1.0,CHI - Lake View,1000,,1956,1,225,569,Active,,,https://www.redfin.com/IL/Chicago/3410-N-Lake-Shore-Dr-60657/unit-4F/home/13376803,MRED,11645828,N,Y,41.9438839,-87.641285
MLS Listing,,Single Family Residential,7272 W Talcott Ave,Chicago,IL,60631,450000,4,2.5,CHI - Norwood Park,2777,,1921,1,162,,Active,,,https://www.redfin.com/IL/Chicago/7272-W-Talcott-Ave-60631/home/13563225,MRED,11622400,N,Y,41.9871389,-87.8092776
MLS Listing,,Single Family Residential,7740 S Kilpatrick Ave,Chicago,IL,60652,235000,3,1.0,CHI - Ashburn,1066,,1958,1,220,,Active,,,https://www.redfin.com/IL/Chicago/7740-S-Kilpatrick-Ave-60652/home/13980282,MRED,11645797,N,Y,41.7516412,-87.7392879
MLS Listing,,Single Family Residential,6238 S Moody Ave,Chicago,IL,60638,260000,4,1.0,CHI - Clearing,1410,,1952,1,184,,Active,,,https://www.redfin.com/IL/Chicago/6238-S-Moody-Ave-60638/home/14002013,MRED,11645791,N,Y,41.7784544,-87.7754685
MLS Listing,,Multi-Family (2-4 Unit),2447 W Fillmore St,Chicago,IL,60612,519000,7,3.0,CHI - Near West Side,,,,1,,,Active,,,https://www.redfin.com/IL/Chicago/2447-W-Fillmore-St-60612/home/13257914,MRED,11645792,N,Y,41.8681734,-87.6879087
MLS Listing,,Condo/Co-op,640 S Federal St #401,Chicago,IL,60605,314500,3,2.0,Printers Square,1476,,1910,1,213,804,Active,,,https://www.redfin.com/IL/Chicago/640-S-Federal-St-60605/unit-401/home/18942336,MRED,11613700,N,Y,41.873657,-87.6298536
MLS Listing,,Condo/Co-op,21 E Huron St #3703,Chicago,IL,60611,1750000,4,3.5,The Pinnacle,3033,,2005,1,577,2740,Active,,,https://www.redfin.com/IL/Chicago/21-E-Huron-St-60611/unit-3703/home/12648117,MRED,11645785,N,Y,41.8948615,-87.6262407
MLS Listing,,Condo/Co-op,2222 N Hamilton Ave #3,Chicago,IL,60647,635000,2,2.0,CHI - Logan Square,,,2014,1,,200,Active,October-8-2022 12:00 AM,October-8-2022 01:00 PM,https://www.redfin.com/IL/Chicago/2222-N-Hamilton-Ave-60647/unit-3/home/113096013,MRED,11644779,N,Y,41.9220759,-87.6817152
MLS Listing,,Condo/Co-op,5801 N Sheridan Rd Unit 16E,Chicago,IL,60660,299900,2,2.0,CHI - Edgewater,1250,,1956,1,240,878,Active,October-8-2022 12:00 PM,October-8-2022 02:00 PM,https://www.redfin.com/IL/Chicago/5801-N-Sheridan-Rd-60660/unit-16E/home/13410105,MRED,11645784,N,Y,41.9876669,-87.6546797
MLS Listing,,Condo/Co-op,400 E Randolph St #3519,Chicago,IL,60601,1175000,3,3.0,New Eastside,2600,,1963,1,452,2072,Active,,,https://www.redfin.com/IL/Chicago/400-E-Randolph-St-60601/unit-3519/home/14095249,MRED,11645770,N,Y,41.885003,-87.6168638
MLS Listing,,Condo/Co-op,748 W Melrose St #3,Chicago,IL,60657,275000,1,1.0,CHI - Lake View,,,1920,1,,264,Active,October-8-2022 11:00 AM,October-8-2022 01:00 PM,https://www.redfin.com/IL/Chicago/748-W-Melrose-St-60657/unit-3/home/13375008,MRED,11645763,N,Y,41.941297,-87.6487952
MLS Listing,,Single Family Residential,3040 N Kostner Ave,Chicago,IL,60641,295000,4,2.0,CHI - Hermosa,1035,3781,1925,1,285,,Active,,,https://www.redfin.com/IL/Chicago/3040-N-Kostner-Ave-60641/home/181392514,MRED,11645760,N,Y,41.9365163,-87.7372654
MLS Listing,,Condo/Co-op,2106 W Montrose Ave #3,Chicago,IL,60618,325000,2,1.0,CHI - Lincoln Square,1325,,,1,245,380,Active,October-8-2022 12:00 AM,October-8-2022 01:30 PM,https://www.redfin.com/IL/Chicago/2106-W-Montrose-Ave-60618/unit-3/home/18943176,MRED,11645755,N,Y,41.9618224,-87.681652
MLS Listing,,Multi-Family (2-4 Unit),1653 N Luna Ave,Chicago,IL,60639,360000,4,2.0,CHI - Austin,,,1927,1,,,Active,,,https://www.redfin.com/IL/Chicago/1653-N-Luna-Ave-60639/home/13425499,MRED,11645740,N,Y,41.9109488,-87.7639745
MLS Listing,,Condo/Co-op,3555 W Lyndale St Unit GB,Chicago,IL,60647,219000,2,2.0,CHI - Logan Square,,,,1,,373,Active,,,https://www.redfin.com/IL/Chicago/3555-W-Lyndale-St-60647/unit-GB/home/18926892,MRED,11645745,N,Y,41.9216687,-87.7159635
MLS Listing,,Single Family Residential,12356 S Green St,Calumet Park,IL,60827,219900,4,2.0,Calumet Park,2200,3515,1920,1,100,,Active,October-9-2022 12:00 PM,October-9-2022 02:00 PM,https://www.redfin.com/IL/Calumet-Park/12356-S-Green-St-60827/home/18912482,MRED,11645741,N,Y,41.6689411,-87.6430519
MLS Listing,,Multi-Family (2-4 Unit),2836 N Parkside Ave,Chicago,IL,60634,499000,9,3.0,CHI - Belmont Cragin,,,1950,1,,,Active,,,https://www.redfin.com/IL/Chicago/2836-N-Parkside-Ave-60634/home/13437355,MRED,11645730,N,Y,41.9323381,-87.7678963
MLS Listing,,Single Family Residential,7525 S Union Ave,Chicago,IL,60620,125000,5,1.0,CHI - Englewood,,,1970,1,,,Active,,,https://www.redfin.com/IL/Chicago/7525-S-Union-Ave-60620/home/13916352,MRED,11645733,N,Y,41.7571479,-87.6414739
MLS Listing,,Townhouse,1933 N Lincoln Ave #3,Chicago,IL,60614,850000,3,3.5,CHI - Lincoln Park,,,1996,1,,200,Active,October-8-2022 10:00 AM,October-8-2022 11:30 AM,https://www.redfin.com/IL/Chicago/1933-N-Lincoln-Ave-60614/unit-3/home/104212986,MRED,11645719,N,Y,41.917502,-87.637163
MLS Listing,,Condo/Co-op,2338 W Roscoe St Unit 2E,Chicago,IL,60618,470000,2,2.0,CHI - North Center,1350,,2004,1,348,194,Active,October-8-2022 11:00 AM,October-8-2022 01:00 PM,https://www.redfin.com/IL/Chicago/2338-W-Roscoe-St-60618/unit-2E/home/12667128,MRED,11645711,N,Y,41.943397,-87.687313
MLS Listing,,Condo/Co-op,5479 S Hyde Park Blvd #1,Chicago,IL,60615,449999,4,2.0,CHI - Hyde Park,2150,,,1,209,650,Active,,,https://www.redfin.com/IL/Chicago/5479-S-Hyde-Park-Blvd-60615/unit-1/home/13947027,MRED,11645709,N,Y,41.7959192,-87.5835498
MLS Listing,,Multi-Family (2-4 Unit),4823 N Magnolia Ave,Chicago,IL,60640,859000,9,3.0,CHI - Uptown,,3049,1900,1,,,Active,,,https://www.redfin.com/IL/Chicago/4823-N-Magnolia-Ave-60640/home/13398829,MRED,11645712,N,Y,41.9697444,-87.6607118
MLS Listing,,Single Family Residential,4832 N Bernard St,Chicago,IL,60625,430000,4,2.5,CHI - Albany Park,,,1915,1,,,Active,October-8-2022 01:30 PM,October-8-2022 03:00 PM,https://www.redfin.com/IL/Chicago/4832-N-Bernard-St-60625/home/13492787,MRED,11640268,N,Y,41.9694002,-87.7148848
MLS Listing,,Condo/Co-op,5445 N Sheridan Rd #2810,Chicago,IL,60640,145000,1,1.0,CHI - Edgewater,850,,1974,1,171,545,Active,,,https://www.redfin.com/IL/Chicago/5445-N-Sheridan-Rd-60640/unit-2810/home/13400475,MRED,11645690,N,Y,41.9813625,-87.6544907
MLS Listing,,Condo/Co-op,320 E 21st St #816,Chicago,IL,60616,209900,1,1.0,CHI - Near South Side,632,,1933,1,332,319,Active,,,https://www.redfin.com/IL/Chicago/320-E-21st-St-60616/unit-816/home/45515164,MRED,11645681,N,Y,41.8546184,-87.6195225
MLS Listing,,Single Family Residential,11608 S Yale Ave,Chicago,IL,60628,280000,5,2.0,CHI - West Pullman,1593,,2006,1,176,,Active,,,https://www.redfin.com/IL/Chicago/11608-S-Yale-Ave-60628/home/13062428,MRED,11645672,N,Y,41.6831664,-87.6291075
MLS Listing,,Multi-Family (2-4 Unit),1340 S Kedvale Ave,Chicago,IL,60623,369000,6,3.0,CHI - North Lawndale,,3049,1915,1,,,Active,,,https://www.redfin.com/IL/Chicago/1340-S-Kedvale-Ave-60623/home/13236623,MRED,11645671,N,Y,41.8630628,-87.7289686
MLS Listing,,Single Family Residential,5418 W Thomas St,Chicago,IL,60651,299900,4,2.5,CHI - Austin,1562,3750,1915,1,192,,Active,,,https://www.redfin.com/IL/Chicago/5418-W-Thomas-St-60651/home/13281598,MRED,11645667,N,Y,41.9005635,-87.7617071
MLS Listing,,Condo/Co-op,900 W Winona St Unit G,Chicago,IL,60640,135000,1,1.0,CHI - Uptown,600,,,1,225,283,Active,,,https://www.redfin.com/IL/Chicago/900-W-Winona-St-60640/unit-G/home/26807726,MRED,11645662,N,Y,41.9754288,-87.6528763
MLS Listing,,Condo/Co-op,739 W Aldine Ave #1,Chicago,IL,60657,450000,2,2.0,CHI - Lake View,1276,,1993,1,353,257,Active,October-8-2022 11:00 AM,October-8-2022 01:00 PM,https://www.redfin.com/IL/Chicago/739-W-Aldine-Ave-60657/unit-1/home/39932561,MRED,11645668,N,Y,41.941743,-87.648423
MLS Listing,,Single Family Residential,54 E Scott St,Chicago,IL,60610,8750000,5,6.5,CHI - Near North Side,10400,5893,2010,1,841,,Active,,,https://www.redfin.com/IL/Chicago/54-E-Scott-St-60610/home/40384362,MRED,11645663,N,Y,41.9051651,-87.6266206
MLS Listing,,Condo/Co-op,4321 N Drake Ave Unit 4E,Chicago,IL,60618,159900,2,1.0,CHI - Irving Park,846,,,1,189,279,Active,October-8-2022 12:00 PM,October-8-2022 02:00 PM,https://www.redfin.com/IL/Chicago/4321-N-Drake-Ave-60618/unit-4E/home/12657345,MRED,11645659,N,Y,41.9600371,-87.7164251
MLS Listing,,Condo/Co-op,1424 W Fillmore St Unit 3W,Chicago,IL,60607,575000,3,2.0,CHI - Near West Side,,,2017,1,,205,Active,,,https://www.redfin.com/IL/Chicago/1424-W-Fillmore-St-60607/unit-3W/home/171323569,MRED,11645656,N,Y,41.8686893,-87.6626994
MLS Listing,,Condo/Co-op,1200 N Lake Shore Dr #701,Chicago,IL,60610,745000,2,2.0,CHI - Near North Side,,,1912,1,,2194,Active,,,https://www.redfin.com/IL/Chicago/1200-N-Lake-Shore-Dr-60610/unit-701/home/179676666,MRED,11645648,N,Y,41.904179,-87.6253919
MLS Listing,,Single Family Residential,5107 W Patterson Ave,Chicago,IL,60641,349900,4,1.5,CHI - Portage Park,1800,5052,1918,1,194,,Active,,,https://www.redfin.com/IL/Chicago/5107-W-Patterson-Ave-60641/home/182138125,MRED,11628667,N,Y,41.9467067,-87.7549086
MLS Listing,,Condo/Co-op,6038 N Claremont Ave Unit 3S,Chicago,IL,60659,234900,3,2.0,CHI - West Ridge,1750,,1922,1,134,351,Active,,,https://www.redfin.com/IL/Chicago/6038-N-Claremont-Ave-60659/unit-3S/home/26807314,MRED,11645641,N,Y,41.9916149,-87.6888087
MLS Listing,,Condo/Co-op,850 W Adams St Unit 2C,Chicago,IL,60607,1399900,3,2.0,CHI - Near West Side,2380,,1925,1,588,841,Active,October-8-2022 11:00 AM,October-8-2022 01:00 PM,https://www.redfin.com/IL/Chicago/850-W-Adams-St-60607/unit-2C/home/12814654,MRED,11645639,N,Y,41.8794457,-87.6491907
MLS Listing,,Condo/Co-op,825 N Milwaukee Ave Unit 4R,Chicago,IL,60642,899990,3,3.0,CHI - West Town,,,2003,1,,315,Active,October-9-2022 11:00 AM,October-9-2022 12:30 PM,https://www.redfin.com/IL/Chicago/825-N-Milwaukee-Ave-60642/unit-4R/home/12618755,MRED,11645630,N,Y,41.8969109,-87.6560493
MLS Listing,,Single Family Residential,7041 W School St,Chicago,IL,60634,429400,5,2.5,CHI - Dunning,1890,4072,1945,1,227,,Active,,,https://www.redfin.com/IL/Chicago/7041-W-School-St-60634/home/13469078,MRED,11645633,N,Y,41.9396784,-87.8029055
MLS Listing,,Condo/Co-op,3750 N Lake Shore Dr Unit 7D,Chicago,IL,60613,650000,3,3.0,CHI - Lake View,,,1926,1,,3000,Active,,,https://www.redfin.com/IL/Chicago/3750-N-Lake-Shore-Dr-60613/unit-7D/home/13124287,MRED,11645615,N,Y,41.9519345,-87.6453299
MLS Listing,,Multi-Family (2-4 Unit),5537 S Union Ave,Chicago,IL,60621,160000,7,2.0,CHI - Englewood,,,1906,1,,,Active,,,https://www.redfin.com/IL/Chicago/5537-S-Union-Ave-60621/home/13943270,MRED,11645616,N,Y,41.7928275,-87.6423584
MLS Listing,,Single Family Residential,2443 W 34th Pl,Chicago,IL,60608,509000,4,3.0,CHI - McKinley Park,2280,,2022,1,223,,Active,,,https://www.redfin.com/IL/Chicago/2443-W-34th-Pl-60608/home/14127413,MRED,11645585,N,Y,41.8308982,-87.6868953
MLS Listing,,Condo/Co-op,1524 W Belle Plaine Ave #3,Chicago,IL,60613,273499,2,1.0,CHI - Lake View,1000,,1917,1,273,356,Active,October-8-2022 11:00 AM,October-8-2022 01:00 PM,https://www.redfin.com/IL/Chicago/1524-W-Belle-Plaine-Ave-60613/unit-3/home/40377567,MRED,11645607,N,Y,41.9562384,-87.6688377
MLS Listing,,Single Family Residential,2636 N Greenview Ave,Chicago,IL,60614,2295000,6,4.5,CHI - Lincoln Park,5228,3471,,1,439,,Active,,,https://www.redfin.com/IL/Chicago/2636-N-Greenview-Ave-60614/home/13362916,MRED,11612264,N,Y,41.9298625,-87.6662373
MLS Listing,,Condo/Co-op,1216 E Hyde Park Blvd Unit 1S,Chicago,IL,60615,324900,3,2.0,CHI - Kenwood,1726,,1922,1,188,294,Active,October-8-2022 01:00 PM,October-8-2022 03:00 PM,https://www.redfin.com/IL/Chicago/1216-E-Hyde-Park-Blvd-60615/unit-1S/home/18495414,MRED,11645603,N,Y,41.8026689,-87.5959157
MLS Listing,,Condo/Co-op,1400 N State Pkwy Unit 5DEF,Chicago,IL,60610,699900,4,3.0,CHI - Near North Side,3000,,1960,1,233,2357,Active,,,https://www.redfin.com/IL/Chicago/1400-N-State-Pkwy-60610/unit-5DEF/home/177424494,MRED,11645606,N,Y,41.9079342,-87.6290189
MLS Listing,,Multi-Family (2-4 Unit),4208 S Talman Ave,Chicago,IL,60632,238000,4,2.0,CHI - Brighton Park,,,1884,1,,,Active,,,https://www.redfin.com/IL/Chicago/4208-S-Talman-Ave-60632/home/14037570,MRED,11645600,N,Y,41.8170209,-87.6910278
MLS Listing,,Condo/Co-op,4055 N Southport Ave #3,Chicago,IL,60613,299000,2,1.0,CHI - Lake View,,,1940,1,,324,Active,October-9-2022 11:00 AM,October-9-2022 01:00 PM,https://www.redfin.com/IL/Chicago/4055-N-Southport-Ave-60613/unit-3/home/12700514,MRED,11645591,N,Y,41.955851,-87.66392
MLS Listing,,Condo/Co-op,222 N Columbus Dr #2210,Chicago,IL,60601,290000,1,1.0,Park Millennium,835,,2002,1,347,690,Active,,,https://www.redfin.com/IL/Chicago/222-N-Columbus-Dr-60601/unit-2210/home/12595702,MRED,11635738,N,Y,41.8864594,-87.6216846
MLS Listing,,Condo/Co-op,3100 N Sheridan Rd Unit 4B,Chicago,IL,60657,639000,3,2.5,CHI - Lake View,2600,,1925,1,246,1977,Active,,,https://www.redfin.com/IL/Chicago/3100-N-Sheridan-Rd-60657/unit-4B/home/13373755,MRED,11645575,N,Y,41.9378991,-87.6398827
MLS Listing,,Single Family Residential,9813 S Hoxie Ave,Chicago,IL,60617,149900,3,1.0,CHI - South Deering,1214,,1949,1,123,,Active,,,https://www.redfin.com/IL/Chicago/9813-S-Hoxie-Ave-60617/home/13039539,MRED,11645576,N,Y,41.7167487,-87.5608094
MLS Listing,,Condo/Co-op,6301 N Sheridan Rd Unit 3V,Chicago,IL,60660,149000,1,1.0,CHI - Edgewater,831,,1963,1,179,697,Active,,,https://www.redfin.com/IL/Chicago/6301-N-Sheridan-Rd-60660/unit-3V/home/13414539,MRED,11645566,N,Y,41.9967345,-87.6550688
MLS Listing,,Condo/Co-op,6700 S South Shore Dr Unit 19H,Chicago,IL,60649,164900,1,1.0,CHI - South Shore,760,,1968,1,217,445,Active,,,https://www.redfin.com/IL/Chicago/6700-S-South-Shore-Dr-60649/unit-19H/home/12690785,MRED,11645556,N,Y,41.7732831,-87.5671284
MLS Listing,,Single Family Residential,11701 S Ridgeway Ave,Alsip,IL,60803,165000,3,1.0,Garden Homes,989,13290,1939,1,167,,Active,,,https://www.redfin.com/IL/Chicago/11701-S-Ridgeway-Ave-60803/home/13136138,MRED,11645553,N,Y,41.6801912,-87.7134272
MLS Listing,,Single Family Residential,8017 W Bryn Mawr Ave,Norwood Park,IL,60631,475000,3,2.0,Norwood Park Township,1610,8533,1959,1,295,,Active,,,https://www.redfin.com/IL/Chicago/8017-W-Bryn-Mawr-Ave-60656/home/13560104,MRED,11645552,N,Y,41.9807751,-87.8277658
MLS Listing,,Single Family Residential,8407 S Gilbert Ct,Chicago,IL,60620,315000,4,2.0,CHI - Auburn Gresham,1300,,,1,242,,Active,,,https://www.redfin.com/IL/Chicago/8407-S-Gilbert-Ct-60620/home/13226541,MRED,11645546,N,Y,41.7405979,-87.6426419
MLS Listing,,Single Family Residential,12338 S Emerald Ave,Chicago,IL,60628,68000,3,1.0,CHI - West Pullman,972,,1928,1,70,,Active,,,https://www.redfin.com/IL/Chicago/12338-S-Emerald-Ave-60628/home/13057619,MRED,11645540,N,Y,41.6693563,-87.6407119
MLS Listing,,Condo/Co-op,1654 W Diversey Pkwy #3,Chicago,IL,60614,699000,3,2.0,CHI - Lake View,2400,,2001,1,291,290,Active,October-9-2022 12:00 PM,October-9-2022 02:00 PM,https://www.redfin.com/IL/Chicago/1654-W-Diversey-Pkwy-60614/unit-3/home/12740396,MRED,11645537,N,Y,41.9326414,-87.6705939
MLS Listing,,Single Family Residential,1229 W 74th St,Chicago,IL,60636,139900,3,2.0,CHI - West Englewood,,3123,1912,1,,,Active,,,https://www.redfin.com/IL/Chicago/1229-W-74th-St-60636/home/13914246,MRED,11645535,N,Y,41.7594055,-87.6551675
MLS Listing,,Multi-Family (2-4 Unit),5319 S Princeton Ave,Chicago,IL,60609,79000,6,2.0,CHI - Fuller Park,,,1884,1,,,Active,,,https://www.redfin.com/IL/Chicago/5319-S-Princeton-Ave-60609/home/13951950,MRED,11645533,N,Y,41.7975169,-87.6328475
MLS Listing,,Single Family Residential,3000 N Nagle Ave,Chicago,IL,60634,425000,4,2.0,CHI - Belmont Cragin,3020,3763,1930,1,141,,Active,October-8-2022 12:00 PM,October-8-2022 02:00 PM,https://www.redfin.com/IL/Chicago/3000-N-Nagle-Ave-60634/home/13433137,MRED,11645526,N,Y,41.9347662,-87.787343
MLS Listing,,Single Family Residential,7835 W Berwyn Ave,Chicago,IL,60656,359900,2,1.5,CHI - Norwood Park,1169,5000,1942,1,308,,Active,October-8-2022 11:00 AM,October-8-2022 01:00 PM,https://www.redfin.com/IL/Chicago/7835-W-Berwyn-Ave-60656/home/13555751,MRED,11615400,N,Y,41.9757562,-87.8232932
MLS Listing,,Single Family Residential,2008 W Ohio St,Chicago,IL,60612,1150000,4,3.5,East Village,4000,2927,2002,1,288,,Active,,,https://www.redfin.com/IL/Chicago/2008-W-Ohio-St-60612/home/14104637,MRED,11645521,N,Y,41.8924211,-87.6773563
MLS Listing,,Condo/Co-op,1440 N Lake Shore Dr Unit 34E,Chicago,IL,60610,399000,2,2.0,CHI - Near North Side,1350,,1965,1,296,1452,Active,,,https://www.redfin.com/IL/Chicago/1440-N-Lake-Shore-Dr-60610/unit-34E/home/182135042,MRED,11645518,N,Y,41.9089622,-87.6266981
MLS Listing,,Vacant Land,2425 W Roosevelt Rd,Chicago,IL,60608,229000,,,CHI - Near West Side,,8712,,1,,,Active,,,https://www.redfin.com/IL/Chicago/2425-W-Roosevelt-Rd-60608/home/147714067,MRED,11645519,N,Y,41.86616,-87.6870299
MLS Listing,,Condo/Co-op,3249 W Hirsch St #101,Chicago,IL,60651,169900,2,2.0,CHI - Humboldt Park,900,,1896,1,189,125,Active,,,https://www.redfin.com/IL/Chicago/3249-W-Hirsch-St-60651/unit-101/home/26810511,MRED,11645510,N,Y,41.9063586,-87.7088014
MLS Listing,,Multi-Family (2-4 Unit),5823 N Rockwell St,Chicago,IL,60659,525000,5,3.0,CHI - West Ridge,,,1925,1,,,Active,October-8-2022 12:00 PM,October-8-2022 02:00 PM,https://www.redfin.com/IL/Chicago/5823-N-Rockwell-St-60659/home/182134976,MRED,11645509,N,Y,41.9874846,-87.6941851
MLS Listing,,Multi-Family (2-4 Unit),6935 N Hamilton Ave,Chicago,IL,60645,515000,12,5.5,CHI - West Ridge,,,1925,1,,,Active,October-8-2022 12:00 PM,October-8-2022 01:30 PM,https://www.redfin.com/IL/Chicago/6935-N-Hamilton-Ave-60645/home/182134966,MRED,11643616,N,Y,42.0074201,-87.6836615
MLS Listing,,Single Family Residential,4054 W Warwick Ave,Chicago,IL,60641,1650000,5,3.5,Old Irving,5600,6250,2002,1,295,,Active,October-8-2022 10:00 AM,October-8-2022 11:30 AM,https://www.redfin.com/IL/Chicago/4054-W-Warwick-Ave-60641/home/13458478,MRED,11636646,N,Y,41.9493273,-87.7296323
MLS Listing,,Single Family Residential,116 E 120th St,Chicago,IL,60628,199900,4,2.0,CHI - West Pullman,1100,5623,1952,1,182,,Active,,,https://www.redfin.com/IL/Chicago/116-E-120th-St-60628/home/13058129,MRED,11645502,N,Y,41.6764361,-87.6197371
MLS Listing,,Vacant Land,2902 W Flournoy St,Chicago,IL,60612,39999,,,CHI - East Garfield Park,,3049,,1,,,Active,,,https://www.redfin.com/IL/Chicago/2902-W-Flournoy-St-60612/home/147815984,MRED,11645491,N,Y,41.8731266,-87.6987486
MLS Listing,,Single Family Residential,2653 E 127th St,Chicago,IL,60633,275000,4,2.0,CHI - Hegewisch,1440,,1972,1,191,,Active,,,https://www.redfin.com/IL/Chicago/2653-E-127th-St-60633/home/13033795,MRED,11645483,N,Y,41.6644516,-87.5584152
MLS Listing,,Single Family Residential,3316 W 114th St,Chicago,IL,60655,399000,3,2.0,CHI - Mount Greenwood,1985,3689,1996,1,201,,Active,,,https://www.redfin.com/IL/Chicago/3316-W-114th-St-60655/home/13135864,MRED,11645481,N,Y,41.6867778,-87.7037328
MLS Listing,,Vacant Land,2908 W Flournoy St,Chicago,IL,60612,39999,,,CHI - East Garfield Park,,3049,,1,,,Active,,,https://www.redfin.com/IL/Chicago/2908-W-Flournoy-St-60612/home/175173026,MRED,11645476,N,Y,41.8731139,-87.698923
MLS Listing,,Single Family Residential,11621 S Vincennes Ave,Chicago,IL,60643,229900,5,3.0,CHI - Morgan Park,1522,3123,1924,1,151,,Active,,,https://www.redfin.com/IL/Chicago/11621-S-Vincennes-Ave-60643/home/12598477,MRED,11645475,N,Y,41.6826077,-87.6684965
MLS Listing,,Single Family Residential,846 N Washtenaw Ave,Chicago,IL,60622,485000,3,2.5,CHI - West Town,1228,3149,1892,1,395,,Active,October-8-2022 11:00 AM,October-8-2022 12:30 PM,https://www.redfin.com/IL/Chicago/846-N-Washtenaw-Ave-60622/home/13287240,MRED,11643209,N,Y,41.8971125,-87.6948011
MLS Listing,,Single Family Residential,8003 S Bennett Ave,Chicago,IL,60617,285000,7,3.0,CHI - South Chicago,2450,5187,1922,1,116,,Active,,,https://www.redfin.com/IL/Chicago/8003-S-Bennett-Ave-60617/home/13220738,MRED,11645471,N,Y,41.7496109,-87.5781058
MLS Listing,,Single Family Residential,9539 S Forest Ave,Chicago,IL,60628,289900,4,2.0,CHI - Roseland,2060,3720,1958,1,141,,Active,,,https://www.redfin.com/IL/Chicago/9539-S-Forest-Ave-60628/home/13088829,MRED,11645472,N,Y,41.720679,-87.6162564
MLS Listing,,Single Family Residential,5931 S Moody Ave,Chicago,IL,60638,620000,4,3.5,CHI - Clearing,2558,4412,2005,1,242,,Active,,,https://www.redfin.com/IL/Chicago/5931-S-Moody-Ave-60638/home/14003150,MRED,11639818,N,Y,41.7841964,-87.7751226
MLS Listing,,Single Family Residential,5410 S Latrobe Ave,Chicago,IL,60638,375000,3,3.0,CHI - Garfield Ridge,1550,3781,1929,1,242,,Active,October-8-2022 12:00 PM,October-8-2022 02:00 PM,https://www.redfin.com/IL/Chicago/5410-Latrobe-Ave-60638/home/14024299,MRED,11645462,N,Y,41.79432,-87.7540547
MLS Listing,,Single Family Residential,3805 N Pittsburgh Ave,Chicago,IL,60634,380000,3,2.5,CHI - Dunning,1200,,1969,1,317,,Active,,,https://www.redfin.com/IL/Chicago/3805-N-Pittsburgh-Ave-60634/home/13545623,MRED,11645454,N,Y,41.9487169,-87.8326217
MLS Listing,,Condo/Co-op,451 W Aldine Ave #3,Chicago,IL,60657,2795000,5,5.5,CHI - Lake View,4500,,1920,1,621,1500,Active,,,https://www.redfin.com/IL/Chicago/451-W-Aldine-Ave-60657/unit-3/home/12773666,MRED,11640780,N,Y,41.9420472,-87.6420408
MLS Listing,,Single Family Residential,3925 N Oconto Ave,Chicago,IL,60634,359000,4,2.5,CHI - Dunning,1491,3781,1925,1,241,,Active,,,https://www.redfin.com/IL/Chicago/3925-N-Oconto-Ave-60634/home/13542493,MRED,11645447,N,Y,41.9514,-87.8081542
MLS Listing,,Condo/Co-op,4858 N Kenmore Ave Unit 1N,Chicago,IL,60640,625000,3,2.5,CHI - Uptown,,,2020,1,,380,Active,,,https://www.redfin.com/IL/Chicago/4858-N-Kenmore-Ave-60640/unit-1N/home/173644146,MRED,11645449,N,Y,41.9707668,-87.6566111
MLS Listing,,Condo/Co-op,3508 N Reta Ave #201,Chicago,IL,60657,539000,2,2.0,CHI - Lake View,1250,,2017,1,431,133,Active,,,https://www.redfin.com/IL/Chicago/3508-N-Reta-Ave-60657/unit-201/home/182134166,MRED,11645440,N,Y,41.9458007,-87.6508975
MLS Listing,,Condo/Co-op,100 E Walton St Unit 22G,Chicago,IL,60611,198750,1,1.0,CHI - Near North Side,650,,1974,1,306,610,Active,,,https://www.redfin.com/IL/Chicago/100-E-Walton-St-60611/unit-22G/home/14121592,MRED,11645437,N,Y,41.9002501,-87.6250781
MLS Listing,,Multi-Family (2-4 Unit),7952 S Carpenter St,Chicago,IL,60620,349900,9,3.0,CHI - Auburn Gresham,,,,1,,,Active,,,https://www.redfin.com/IL/Chicago/7952-S-Carpenter-St-60620/home/18952763,MRED,11645425,N,Y,41.7489794,-87.6503961
MLS Listing,,Multi-Family (2-4 Unit),7926 S Carpenter St,Chicago,IL,60620,349900,9,3.0,CHI - Auburn Gresham,,4791,,1,,,Active,,,https://www.redfin.com/IL/Chicago/7926-S-Carpenter-St-60620/home/18952760,MRED,11645424,N,Y,41.7497096,-87.6503734
MLS Listing,,Townhouse,451 W Hobbie St,Chicago,IL,60610,875000,3,2.0,CHI - Near North Side,2198,,2015,1,398,233,Active,,,https://www.redfin.com/IL/Chicago/451-W-Hobbie-St-60610/home/62636061,MRED,11645421,N,Y,41.9014053,-87.6406926
MLS Listing,,Condo/Co-op,7401 N Sheridan Rd #202,Chicago,IL,60626,264000,2,1.5,CHI - Rogers Park,,,1969,1,,353,Active,,,https://www.redfin.com/IL/Chicago/7401-N-Sheridan-Rd-60626/unit-202/home/13575732,MRED,11645413,N,Y,42.0162857,-87.6647363
MLS Listing,,Single Family Residential,5851 N Louise Ave,Chicago,IL,60646,279900,2,1.5,CHI - Forest Glen,1200,,1925,1,233,,Active,,,https://www.redfin.com/IL/Chicago/5851-N-Louise-Ave-60646/home/13513026,MRED,11642028,N,Y,41.9889161,-87.7529023
MLS Listing,,Condo/Co-op,5100 N Marine Dr Unit 20A,Chicago,IL,60640,265000,2,2.0,CHI - Uptown,1250,,1970,1,212,698,Active,,,https://www.redfin.com/IL/Chicago/5100-N-Marine-Dr-60640/unit-20A/home/13399769,MRED,11645404,N,Y,41.9756204,-87.6522943
MLS Listing,,Condo/Co-op,400 E Ohio St #4103,Chicago,IL,60611,800000,3,3.0,CHI - Near North Side,2005,,1982,1,399,1866,Active,,,https://www.redfin.com/IL/Chicago/400-E-Ohio-St-60611/unit-4103/home/14098193,MRED,11645401,N,Y,41.892791,-87.617495
MLS Listing,,Condo/Co-op,8 E Randolph St #2701,Chicago,IL,60601,599000,2,2.0,CHI - Loop,1365,,2008,1,439,1220,Active,,,https://www.redfin.com/IL/Chicago/8-E-Randolph-St-60601/unit-2701/home/21810021,MRED,11645399,N,Y,41.8846478,-87.6274056
MLS Listing,,Single Family Residential,4012 N Hermitage Ave,Chicago,IL,60613,999000,4,3.5,CHI - Lake View,2214,4125,1900,1,451,,Active,October-8-2022 02:00 PM,October-8-2022 04:00 PM,https://www.redfin.com/IL/Chicago/4012-N-Hermitage-Ave-60613/home/13389306,MRED,11645396,N,Y,41.9547526,-87.672534
MLS Listing,,Multi-Family (2-4 Unit),6320 N Paulina St,Chicago,IL,60660,799495,8,3.0,CHI - Edgewater,,,1905,1,,,Active,,,https://www.redfin.com/IL/Chicago/6320-N-Paulina-St-60660/home/13407518,MRED,11645263,N,Y,41.9962518,-87.6722718
MLS Listing,,Single Family Residential,8104 S Dorchester Ave,Chicago,IL,60619,335000,4,2.0,CHI - Avalon Park,1456,7666,1913,1,230,,Active,,,https://www.redfin.com/IL/Chicago/8104-S-Dorchester-Ave-60619/home/12557979,MRED,11645390,N,Y,41.7474675,-87.5908037
